country,state,city,station,last_update,latitude,longitude,pollutant_id,pollutant_min,pollutant_max,pollutant_avg
India,Andhra_Pradesh,Amaravati,"Secretariat, Amaravati - APPCB","10-10-2025 22:00:00",16.5150833,80.5181667,PM10,48,124,71
India,Andhra_Pradesh,Amaravati,"Secretariat, Amaravati - APPCB","10-10-2025 22:00:00",16.5150833,80.5181667,OZONE,6,25,17
India,Andhra_Pradesh,Anantapur,"Gulzarpet, Anantapur - APPCB","10-10-2025 22:00:00",14.675886,77.593027,NH3,4,4,4
India,Andhra_Pradesh,Anantapur,"Gulzarpet, Anantapur - APPCB","10-10-2025 22:00:00",14.675886,77.593027,SO2,13,15,14
India,Andhra_Pradesh,Chittoor,"Gangineni Cheruvu, Chittoor - APPCB","10-10-2025 22:00:00",13.204880,79.097889,NH3,6,10,7
India,Assam,Guwahati,"LGBI Airport, Guwahati - PCBA","10-10-2025 22:00:00",26.10887,91.589544,CO,24,141,30
India,Assam,Guwahati,"LGBI Airport, Guwahati - PCBA","10-10-2025 22:00:00",26.10887,91.589544,OZONE,15,17,16
India,Assam,Guwahati,"Railway Colony, Guwahati - PCBA","10-10-2025 22:00:00",26.181742,91.78063,PM2.5,43,133,77
India,Assam,Guwahati,"Railway Colony, Guwahati - PCBA","10-10-2025 22:00:00",26.181742,91.78063,NO2,3,3,3
India,Andhra_Pradesh,Vijayawada,"HB Colony, Vijayawada - APPCB","10-10-2025 22:00:00",16.536107,80.594233,OZONE,8,26,26
India,Andhra_Pradesh,Vijayawada,"Rajiv Gandhi Park, Vijayawada - APPCB","10-10-2025 22:00:00",16.509717,80.612222,NO2,13,60,34
India,Andhra_Pradesh,Vijayawada,"Rajiv Gandhi Park, Vijayawada - APPCB","10-10-2025 22:00:00",16.509717,80.612222,CO,26,38,36
India,Andhra_Pradesh,Vijayawada,"Rajiv Gandhi Park, Vijayawada - APPCB","10-10-2025 22:00:00",16.509717,80.612222,OZONE,21,39,33
India,Andhra_Pradesh,Rajamahendravaram,"Anand Kala Kshetram, Rajamahendravaram - APPCB","10-10-2025 22:00:00",16.9872867,81.7363176,NO2,9,35,18
India,Andhra_Pradesh,Tirumala,"Toll Gate, Tirumala - APPCB","10-10-2025 22:00:00",13.67,79.35,PM10,15,84,58
India,Andhra_Pradesh,Tirumala,"Toll Gate, Tirumala - APPCB","10-10-2025 22:00:00",13.67,79.35,NO2,9,20,16
India,Andhra_Pradesh,Visakhapatnam,"GVM Corporation, Visakhapatnam - APPCB","10-10-2025 22:00:00",17.72,83.3,PM10,78,206,140
India,Arunachal_Pradesh,Naharlagun,"Naharlagun, Naharlagun - APSPCB","10-10-2025 22:00:00",27.103358,93.679645,PM2.5,NA,NA,NA
India,Andhra_Pradesh,Kadapa,"Yerramukkapalli, Kadapa - APPCB","10-10-2025 22:00:00",14.465052,78.824187,PM10,46,47,46
India,Andhra_Pradesh,Kadapa,"Yerramukkapalli, Kadapa - APPCB","10-10-2025 22:00:00",14.465052,78.824187,NO2,12,21,15
India,"Andaman and Nicobar","Sri Vijaya Puram","Police Line, Sri Vijaya Puram - ANPCC","10-10-2025 22:00:00",11.654054,92.734055,NH3,NA,NA,NA
India,Andhra_Pradesh,Tirupati,"Vaikuntapuram, Tirupati - APPCB","10-10-2025 22:00:00",13.615387,79.409230,OZONE,33,36,34
India,Andhra_Pradesh,Kadapa,"Yerramukkapalli, Kadapa - APPCB","10-10-2025 22:00:00",14.465052,78.824187,CO,22,36,27
India,Assam,Guwahati,"IITG, Guwahati - PCBA","10-10-2025 22:00:00",26.2028636,91.70046436,NO2,1,5,3
India,Bihar,Araria,"Kharahiya Basti, Araria - BSPCB","10-10-2025 22:00:00",26.146529,87.454184,NO2,2,79,24
India,Bihar,Araria,"Kharahiya Basti, Araria - BSPCB","10-10-2025 22:00:00",26.146529,87.454184,NH3,5,5,5
India,Bihar,Arrah,"New DM Office, Arrah - BSPCB","10-10-2025 22:00:00",25.5626095,84.663264,PM10,26,28,27
India,Bihar,Arrah,"New DM Office, Arrah - BSPCB","10-10-2025 22:00:00",25.5626095,84.663264,SO2,10,10,10
India,Bihar,Bhagalpur,"Mayaganj, Bhagalpur - BSPCB","10-10-2025 22:00:00",25.265194,87.012947,PM2.5,55,100,76
India,Bihar,Buxar,"Charitra Van, Buxar - BSPCB","10-10-2025 22:00:00",25.567520,83.966379,PM10,66,71,70
India,Bihar,Buxar,"Charitra Van, Buxar - BSPCB","10-10-2025 22:00:00",25.567520,83.966379,NH3,3,3,3
India,Assam,Nagaon,"Christianpatty, Nagaon - PCBA","10-10-2025 22:00:00",26.349082,92.68449,PM2.5,52,58,56
India,Assam,Silchar,"Tarapur, Silchar - PCBA","10-10-2025 22:00:00",24.82827,92.79525,PM2.5,41,49,43
India,Assam,Silchar,"Tarapur, Silchar - PCBA","10-10-2025 22:00:00",24.82827,92.79525,CO,40,64,56
India,Bihar,Begusarai,"Lohiyanagar, Begusarai - BSPCB","10-10-2025 22:00:00",25.42742023,86.13886079,SO2,27,50,40
India,Bihar,Bettiah,"Kamalnath Nagar, Bettiah - BSPCB","10-10-2025 22:00:00",26.80365,84.51954,PM10,58,128,81
India,Bihar,Gaya,"SFTI Kusdihra, Gaya - BSPCB","10-10-2025 22:00:00",24.762518,84.982348,PM10,30,88,51
India,Bihar,Gaya,"SFTI Kusdihra, Gaya - BSPCB","10-10-2025 22:00:00",24.762518,84.982348,CO,13,28,20
India,Bihar,Gaya,"Collectorate, Gaya - BSPCB","10-10-2025 22:00:00",24.7955,84.9994,CO,34,54,52
India,Bihar,Gaya,"Collectorate, Gaya - BSPCB","10-10-2025 22:00:00",24.7955,84.9994,OZONE,19,23,20
India,Bihar,Kishanganj,"SDM Office_Khagra, Kishanganj - BSPCB","10-10-2025 22:00:00",26.0881305,87.93840336,PM10,NA,NA,NA
India,Bihar,Hajipur,"Industrial Area, Hajipur - BSPCB","10-10-2025 22:00:00",25.697189,85.245900,SO2,2,6,4
India,Bihar,Aurangabad,"Gurdeo Nagar, Aurangabad - BSPCB","10-10-2025 22:00:00",24.75746,84.366208,NH3,1,2,2
India,Bihar,Manguraha,"Forest Rest House, Manguraha - BSPCB","10-10-2025 22:00:00",27.308328,84.531742,SO2,13,19,17
India,Bihar,Munger,"Town Hall, Munger - BSPCB","10-10-2025 22:00:00",25.376776,86.471523,NH3,5,13,6
India,Bihar,Rajgir,"Dangi Tola, Rajgir - BSPCB","10-10-2025 22:00:00",25.03280,85.41948,OZONE,29,33,32
India,Bihar,Samastipur,"DM Office_Kasipur, Samastipur - BSPCB","10-10-2025 22:00:00",25.859655,85.77944,CO,21,33,26
India,Bihar,Patna,"DRM Office Danapur, Patna - BSPCB","10-10-2025 22:00:00",25.586562,85.043586,OZONE,19,64,45
India,Bihar,Patna,"Govt. High School Shikarpur, Patna - BSPCB","10-10-2025 22:00:00",25.592539,85.227158,CO,17,32,26
India,Bihar,Patna,"Muradpur, Patna - BSPCB","10-10-2025 22:00:00",25.619651,85.147382,CO,36,69,49
India,Bihar,Patna,"Rajbansi Nagar, Patna - BSPCB","10-10-2025 22:00:00",25.599486,85.113666,SO2,6,9,7
India,Bihar,Sasaram,"Dada Peer, Sasaram - BSPCB","10-10-2025 22:00:00",24.952822,84.002396,NO2,2,4,2
India,Bihar,Sasaram,"Dada Peer, Sasaram - BSPCB","10-10-2025 22:00:00",24.952822,84.002396,CO,38,64,53
India,Bihar,Muzaffarpur,"MIT-Daudpur Kothi, Muzaffarpur - BSPCB","10-10-2025 22:00:00",26.1403345,85.3650192,SO2,NA,NA,NA
India,Bihar,Patna,"IGSC Planetarium Complex, Patna - BSPCB","10-10-2025 22:00:00",25.610369,85.132568,SO2,1,24,15
India,Bihar,Patna,"IGSC Planetarium Complex, Patna - BSPCB","10-10-2025 22:00:00",25.610369,85.132568,PM2.5,NA,NA,NA
India,Bihar,Munger,"Town Hall, Munger - BSPCB","10-10-2025 22:00:00",25.376776,86.471523,CO,26,36,30
India,Chhattisgarh,Bhilai,"Civic Center, Bhilai - Bhilai Steel Plant","10-10-2025 22:00:00",21.185571,81.343175,NH3,3,3,3
India,Chhattisgarh,Bhilai,"Hathkhoj, Bhilai - CECB","10-10-2025 22:00:00",21.224231,81.408350,CO,9,31,21
India,Chhattisgarh,Chhal,"Nawapara SECL Colony, Chhal - CECB","10-10-2025 22:00:00",22.118125,83.140608,NH3,NA,NA,NA
India,Chhattisgarh,Chhal,"Nawapara SECL Colony, Chhal - CECB","10-10-2025 22:00:00",22.118125,83.140608,CO,10,26,21
India,Chhattisgarh,Raipur,"Krishak Nagar, Raipur - CECB","10-10-2025 22:00:00",21.237755,81.705301,CO,14,22,18
India,Chhattisgarh,Raipur,"Siltara Phase-II, Raipur - CECB","10-10-2025 22:00:00",21.371751,81.664929,NH3,NA,NA,NA
India,Chhattisgarh,Tumidih,"OP Jindal Industrial Park, Tumidih - CECB","10-10-2025 22:00:00",22.06631475,83.33820077,PM2.5,22,48,34
India,Chhattisgarh,Bhilai,"32Bungalows, Bhilai - CECB","10-10-2025 22:00:00",21.194815,81.314770,NO2,12,57,26
India,Chhattisgarh,Bhilai,"32Bungalows, Bhilai - CECB","10-10-2025 22:00:00",21.194815,81.314770,OZONE,2,41,24
India,Chhattisgarh,Bhilai,"Civic Center, Bhilai - Bhilai Steel Plant","10-10-2025 22:00:00",21.185571,81.343175,PM10,36,115,68
India,Chhattisgarh,Raipur,"Bhatagaon New ISBT, Raipur - CECB","10-10-2025 22:00:00",21.219665,81.630094,PM2.5,9,23,14
India,Chhattisgarh,Raipur,"Bhatagaon New ISBT, Raipur - CECB","10-10-2025 22:00:00",21.219665,81.630094,PM10,12,75,32
India,Chhattisgarh,Raipur,"Bhatagaon New ISBT, Raipur - CECB","10-10-2025 22:00:00",21.219665,81.630094,NH3,2,2,2
India,Chhattisgarh,Korba,"Urja Nagar, Korba - CECB","10-10-2025 22:00:00",22.348441,82.549611,CO,16,24,19
India,Chhattisgarh,Kunjemura,"OP Jindal School, Kunjemura - CECB","10-10-2025 22:00:00",22.126650,83.483212,NH3,NA,NA,NA
India,Chandigarh,Chandigarh,"Sector-53, Chandigarh - CPCC","10-10-2025 22:00:00",30.719859,76.738637,PM2.5,NA,NA,NA
India,Chandigarh,Chandigarh,"Sector-53, Chandigarh - CPCC","10-10-2025 22:00:00",30.719859,76.738637,PM10,NA,NA,NA
India,Chandigarh,Chandigarh,"Sector-53, Chandigarh - CPCC","10-10-2025 22:00:00",30.719859,76.738637,NO2,NA,NA,NA
India,Chandigarh,Chandigarh,"Sector-53, Chandigarh - CPCC","10-10-2025 22:00:00",30.719859,76.738637,NH3,NA,NA,NA
India,Chhattisgarh,Korba,"Rampur, Korba - CECB","10-10-2025 22:00:00",22.368195,82.746431,CO,14,35,16
India,Chhattisgarh,Korba,"Rampur, Korba - CECB","10-10-2025 22:00:00",22.368195,82.746431,OZONE,2,4,2
India,Chhattisgarh,Raipur,"Bhatagaon New ISBT, Raipur - CECB","10-10-2025 22:00:00",21.219665,81.630094,OZONE,2,12,6
India,Chandigarh,Chandigarh,"Sector-25, Chandigarh - CPCC","10-10-2025 22:00:00",30.751462,76.762879,NH3,4,7,6
India,Delhi,Delhi,"Jawaharlal Nehru Stadium, Delhi - DPCC","10-10-2025 22:00:00",28.580280,77.233829,PM10,140,226,172
India,Delhi,Delhi,"Jawaharlal Nehru Stadium, Delhi - DPCC","10-10-2025 22:00:00",28.580280,77.233829,NO2,29,128,65
India,Delhi,Delhi,"Jawaharlal Nehru Stadium, Delhi - DPCC","10-10-2025 22:00:00",28.580280,77.233829,NH3,4,6,5
India,Delhi,Delhi,"Lodhi Road, Delhi - IITM","10-10-2025 22:00:00",28.588333,77.221667,NO2,NA,NA,NA
India,Delhi,Delhi,"Lodhi Road, Delhi - IMD","10-10-2025 22:00:00",28.5918245,77.2273074,PM10,109,181,151
India,Delhi,Delhi,"Lodhi Road, Delhi - IMD","10-10-2025 22:00:00",28.5918245,77.2273074,NO2,2,51,24
India,Delhi,Delhi,"Major Dhyan Chand National Stadium, Delhi - DPCC","10-10-2025 22:00:00",28.611281,77.237738,PM2.5,88,173,120
India,Delhi,Delhi,"Dwarka-Sector 8, Delhi - DPCC ","10-10-2025 22:00:00",28.5710274,77.0719006,OZONE,4,153,84
India,Delhi,Delhi,"IGI Airport (T3), Delhi - IMD","10-10-2025 22:00:00",28.5627763,77.1180053,PM2.5,68,175,104
India,Delhi,Delhi,"IHBAS, Dilshad Garden, Delhi - CPCB","10-10-2025 22:00:00",28.6811736,77.3025234,PM2.5,192,283,246
India,Delhi,Delhi,"IHBAS, Dilshad Garden, Delhi - CPCB","10-10-2025 22:00:00",28.6811736,77.3025234,NO2,66,78,72
India,Delhi,Delhi,"IHBAS, Dilshad Garden, Delhi - CPCB","10-10-2025 22:00:00",28.6811736,77.3025234,NH3,4,4,4
India,Delhi,Delhi,"Bawana, Delhi - DPCC","10-10-2025 22:00:00",28.776200,77.051074,NO2,4,55,20
India,Delhi,Delhi,"Bawana, Delhi - DPCC","10-10-2025 22:00:00",28.776200,77.051074,SO2,6,12,9
India,Delhi,Delhi,"Bawana, Delhi - DPCC","10-10-2025 22:00:00",28.776200,77.051074,CO,39,78,58
India,Delhi,Delhi,"DTU, Delhi - CPCB","10-10-2025 22:00:00",28.7500499,77.1112615,PM2.5,58,103,78
India,Delhi,Delhi,"Najafgarh, Delhi - DPCC","10-10-2025 22:00:00",28.570173,76.933762,SO2,4,9,6
India,Delhi,Delhi,"Najafgarh, Delhi - DPCC","10-10-2025 22:00:00",28.570173,76.933762,CO,12,30,19
India,Delhi,Delhi,"Najafgarh, Delhi - DPCC","10-10-2025 22:00:00",28.570173,76.933762,OZONE,5,66,32
India,Delhi,Delhi,"Nehru Nagar, Delhi - DPCC","10-10-2025 22:00:00",28.567890,77.250515,PM10,119,212,157
India,Delhi,Delhi,"Ashok Vihar, Delhi - DPCC","10-10-2025 22:00:00",28.695381,77.181665,SO2,8,22,15
India,Delhi,Delhi,"Aya Nagar, Delhi - IMD","10-10-2025 22:00:00",28.4706914,77.1099364,PM10,113,195,152
India,Delhi,Delhi,"Aya Nagar, Delhi - IMD","10-10-2025 22:00:00",28.4706914,77.1099364,CO,38,56,44
India,Delhi,Delhi,"Dr. Karni Singh Shooting Range, Delhi - DPCC","10-10-2025 22:00:00",28.498571,77.264840,CO,11,76,38
India,Delhi,Delhi,"Dwarka-Sector 8, Delhi - DPCC ","10-10-2025 22:00:00",28.5710274,77.0719006,PM10,135,362,199
India,Delhi,Delhi,"ITO, Delhi - CPCB","10-10-2025 22:00:00",28.628624,77.241060,OZONE,1,48,13
India,Delhi,Delhi,"Jahangirpuri, Delhi - DPCC","10-10-2025 22:00:00",28.732820,77.170633,PM10,137,412,195
India,Delhi,Delhi,"Mandir Marg, Delhi - DPCC","10-10-2025 22:00:00",28.636429,77.201067,SO2,14,16,15
India,Delhi,Delhi,"NSIT Dwarka, Delhi - CPCB","10-10-2025 22:00:00",28.60909,77.0325413,PM2.5,27,62,41
India,Delhi,Delhi,"Ashok Vihar, Delhi - DPCC","10-10-2025 22:00:00",28.695381,77.181665,PM2.5,83,207,123
India,Delhi,Delhi,"Ashok Vihar, Delhi - DPCC","10-10-2025 22:00:00",28.695381,77.181665,NO2,13,88,35
India,Delhi,Delhi,"Patparganj, Delhi - DPCC","10-10-2025 22:00:00",28.623763,77.287209,PM10,147,244,182
India,Delhi,Delhi,"Patparganj, Delhi - DPCC","10-10-2025 22:00:00",28.623763,77.287209,SO2,4,10,6
India,Delhi,Delhi,"Patparganj, Delhi - DPCC","10-10-2025 22:00:00",28.623763,77.287209,OZONE,6,300,164
India,Delhi,Delhi,"Punjabi Bagh, Delhi - DPCC","10-10-2025 22:00:00",28.674045,77.131023,PM2.5,60,280,129
India,Delhi,Delhi,"Punjabi Bagh, Delhi - DPCC","10-10-2025 22:00:00",28.674045,77.131023,NO2,21,68,35
India,Delhi,Delhi,"Pusa, Delhi - DPCC","10-10-2025 22:00:00",28.639652,77.146275,PM2.5,87,230,129
India,Delhi,Delhi,"Pusa, Delhi - DPCC","10-10-2025 22:00:00",28.639652,77.146275,NH3,6,31,19
India,Delhi,Delhi,"R K Puram, Delhi - DPCC","10-10-2025 22:00:00",28.563262,77.186937,PM2.5,112,362,159
India,Delhi,Delhi,"R K Puram, Delhi - DPCC","10-10-2025 22:00:00",28.563262,77.186937,NH3,2,4,3
India,Delhi,Delhi,"R K Puram, Delhi - DPCC","10-10-2025 22:00:00",28.563262,77.186937,SO2,13,53,22
India,Delhi,Delhi,"R K Puram, Delhi - DPCC","10-10-2025 22:00:00",28.563262,77.186937,CO,42,118,91
India,Delhi,Delhi,"Rohini, Delhi - DPCC","10-10-2025 22:00:00",28.732528,77.119920,NH3,8,9,8
India,Delhi,Delhi,"Sirifort, Delhi - CPCB","10-10-2025 22:00:00",28.5504249,77.2159377,PM2.5,45,216,74
India,Delhi,Delhi,"Sirifort, Delhi - CPCB","10-10-2025 22:00:00",28.5504249,77.2159377,NO2,26,95,74
India,Delhi,Delhi,"Sirifort, Delhi - CPCB","10-10-2025 22:00:00",28.5504249,77.2159377,CO,10,88,29
India,Delhi,Delhi,"Sirifort, Delhi - CPCB","10-10-2025 22:00:00",28.5504249,77.2159377,OZONE,18,27,22
India,Gujarat,Ahmedabad,"Chandkheda, Ahmedabad - IITM","10-10-2025 22:00:00",23.107969,72.574648,NH3,5,25,13
India,Gujarat,Ahmedabad,"Chandkheda, Ahmedabad - IITM","10-10-2025 22:00:00",23.107969,72.574648,SO2,8,17,14
India,Gujarat,Ahmedabad,"Gyaspur, Ahmedabad - IITM","10-10-2025 22:00:00",22.977134,72.553024,SO2,2,50,21
India,Delhi,Delhi,"Wazirpur, Delhi - DPCC","10-10-2025 22:00:00",28.699793,77.165453,PM2.5,80,195,116
India,Delhi,Delhi,"Wazirpur, Delhi - DPCC","10-10-2025 22:00:00",28.699793,77.165453,CO,28,76,49
India,Delhi,Delhi,"Wazirpur, Delhi - DPCC","10-10-2025 22:00:00",28.699793,77.165453,OZONE,8,110,68
India,Delhi,Delhi,"Sonia Vihar, Delhi - DPCC","10-10-2025 22:00:00",28.710508,77.249485,CO,42,102,59
India,Delhi,Delhi,"Sri Aurobindo Marg, Delhi - DPCC","10-10-2025 22:00:00",28.531346,77.190156,NO2,19,43,26
India,Delhi,Delhi,"Nehru Nagar, Delhi - DPCC","10-10-2025 22:00:00",28.567890,77.250515,CO,24,102,50
India,Delhi,Delhi,"Nehru Nagar, Delhi - DPCC","10-10-2025 22:00:00",28.567890,77.250515,OZONE,3,223,122
India,Delhi,Delhi,"Sonia Vihar, Delhi - DPCC","10-10-2025 22:00:00",28.710508,77.249485,NO2,16,50,30
India,Delhi,Delhi,"Sonia Vihar, Delhi - DPCC","10-10-2025 22:00:00",28.710508,77.249485,SO2,7,17,10
India,Gujarat,Ahmedabad,"Raikhad, Ahmedabad - IITM","10-10-2025 22:00:00",23.020509,72.579261,PM2.5,99,271,166
India,Gujarat,Ahmedabad,"SVPI Airport Hansol, Ahmedabad - IITM","10-10-2025 22:00:00",23.076793,72.627874,NH3,1,3,2
India,Gujarat,Ankleshwar,"GIDC, Ankleshwar - GPCB","10-10-2025 22:00:00",21.613267,73.010555,PM2.5,NA,NA,NA
India,Gujarat,Ankleshwar,"GIDC, Ankleshwar - GPCB","10-10-2025 22:00:00",21.613267,73.010555,NO2,22,23,23
India,Gujarat,Ankleshwar,"GIDC, Ankleshwar - GPCB","10-10-2025 22:00:00",21.613267,73.010555,SO2,53,55,54
India,Gujarat,Ankleshwar,"GIDC, Ankleshwar - GPCB","10-10-2025 22:00:00",21.613267,73.010555,CO,34,94,47
India,Gujarat,Gandhinagar,"GIFT City, Gandhinagar - IITM","10-10-2025 22:00:00",23.163798,72.677768,PM10,147,200,166
India,Gujarat,Gandhinagar,"GIFT City, Gandhinagar - IITM","10-10-2025 22:00:00",23.163798,72.677768,NO2,6,82,32
India,Gujarat,Gandhinagar,"GIFT City, Gandhinagar - IITM","10-10-2025 22:00:00",23.163798,72.677768,SO2,1,16,7
India,Gujarat,Gandhinagar,"IIPHG Lekawada, Gandhinagar - IITM","10-10-2025 22:00:00",23.243639,72.68994,PM10,163,180,171
India,Gujarat,Vatva,"Phase-4 GIDC, Vatva - GPCB","10-10-2025 22:00:00",22.969611,72.643500,SO2,9,64,41
India,Gujarat,Vatva,"Phase-4 GIDC, Vatva - GPCB","10-10-2025 22:00:00",22.969611,72.643500,CO,12,48,24
India,Haryana,Bahadurgarh,"Arya Nagar, Bahadurgarh - HSPCB","10-10-2025 22:00:00",28.6701,76.9254,CO,24,54,48
India,Haryana,Ballabgarh,"Nathu Colony, Ballabgarh - HSPCB","10-10-2025 22:00:00",28.3419248,77.319699,PM2.5,61,300,182
India,Haryana,"Charkhi Dadri","Mini Secretariat, Charkhi Dadri - HSPCB","10-10-2025 22:00:00",28.593883,76.270653,PM10,6,169,87
India,Haryana,"Charkhi Dadri","Mini Secretariat, Charkhi Dadri - HSPCB","10-10-2025 22:00:00",28.593883,76.270653,NH3,5,8,6
India,Haryana,Faridabad,"Sector 11, Faridabad - HSPCB","10-10-2025 22:00:00",28.376058,77.315741,PM10,116,124,119
India,Haryana,Faridabad,"Sector 11, Faridabad - HSPCB","10-10-2025 22:00:00",28.376058,77.315741,CO,33,52,49
India,Gujarat,Ahmedabad,"SAC ISRO Satellite, Ahmedabad - IITM","10-10-2025 22:00:00",23.023389,72.515201,OZONE,1,49,18
India,Gujarat,Ahmedabad,"SAC ISRO Bopal, Ahmedabad - IITM","10-10-2025 22:00:00",23.041137,72.456691,OZONE,1,65,25
India,Haryana,Ballabgarh,"Nathu Colony, Ballabgarh - HSPCB","10-10-2025 22:00:00",28.3419248,77.319699,OZONE,15,15,15
India,Gujarat,Gandhinagar,"IIPHG Lekawada, Gandhinagar - IITM","10-10-2025 22:00:00",23.243639,72.68994,NH3,1,1,1
India,Gujarat,Surat,"Science Center, Surat - SMC","10-10-2025 22:00:00",21.170046,72.795405,NO2,7,21,12
India,Haryana,Kurukshetra,"Sector-7, Kurukshetra - HSPCB","10-10-2025 22:00:00",29.966942,76.875879,OZONE,21,59,49
India,Haryana,Mandikhera,"General Hospital, Mandikhera - HSPCB","10-10-2025 22:00:00",27.9002,76.9938,NH3,3,71,35
India,Haryana,Mandikhera,"General Hospital, Mandikhera - HSPCB","10-10-2025 22:00:00",27.9002,76.9938,OZONE,16,16,16
India,Haryana,Manesar,"Sector-2 IMT, Manesar - HSPCB","10-10-2025 22:00:00",28.360699,76.936090,PM10,85,152,119
India,Haryana,Panchgaon,"Amity University, Panchgaon - IITM","10-10-2025 22:00:00",28.3153,76.9143,PM10,45,123,86
India,Haryana,Panchgaon,"Amity University, Panchgaon - IITM","10-10-2025 22:00:00",28.3153,76.9143,NH3,1,4,2
India,"Himachal Pradesh",Baddi,"HIMUDA Complex Phase-1, Baddi - HPPCB","10-10-2025 22:00:00",30.943887,76.801991,CO,40,70,48
India,Jammu_and_Kashmir,Srinagar,"Rajbagh, Srinagar - JKSPCB","10-10-2025 22:00:00",34.066206,74.819820,OZONE,1,26,8
India,Jharkhand,Dhanbad,"Sardar Patel Nagar, Dhanbad - JSPCB","10-10-2025 22:00:00",23.80569,86.44268,NO2,97,209,114
India,Haryana,Faridabad,"Sector 30, Faridabad - HSPCB","10-10-2025 22:00:00",28.4417,77.3217,OZONE,17,19,18
India,Haryana,Gurugram,"NISE Gwal Pahari, Gurugram - IMD","10-10-2025 22:00:00",28.422681,77.148944,OZONE,11,77,47
India,Haryana,Gurugram,"Sector-51, Gurugram - HSPCB","10-10-2025 22:00:00",28.4227,77.0667,PM10,133,500,205
India,Haryana,Gurugram,"Sector-51, Gurugram - HSPCB","10-10-2025 22:00:00",28.4227,77.0667,SO2,3,19,12
India,Haryana,Kaithal,"Rishi Nagar, Kaithal - HSPCB","10-10-2025 22:00:00",29.8006,76.4155,SO2,24,26,25
India,Haryana,Karnal,"Sector-12, Karnal - HSPCB","10-10-2025 22:00:00",29.695300,77.002700,PM10,52,130,94
India,Haryana,Rohtak,"MD University, Rohtak - HSPCB","10-10-2025 22:00:00",28.52123,76.37138,NO2,32,39,36
India,Haryana,Rohtak,"MD University, Rohtak - HSPCB","10-10-2025 22:00:00",28.52123,76.37138,CO,26,34,30
India,Haryana,Panchgaon,"Amity University, Panchgaon - IITM","10-10-2025 22:00:00",28.3153,76.9143,CO,32,62,47
India,Karnataka,Bagalkot,"Vidayagiri, Bagalkot - KSPCB","10-10-2025 22:00:00",16.172806,75.659694,NH3,1,2,1
India,Haryana,Panipat,"Sector-18, Panipat - HSPCB","10-10-2025 22:00:00",29.432304,76.972765,PM2.5,NA,NA,NA
India,Haryana,Sirsa,"F-Block, Sirsa - HSPCB","10-10-2025 22:00:00",29.536400,75.015800,SO2,5,9,7
India,Karnataka,Bengaluru,"Peenya, Bengaluru - CPCB","10-10-2025 22:00:00",13.0270199,77.494094,SO2,1,12,5
India,Karnataka,Bengaluru,"Peenya, Bengaluru - CPCB","10-10-2025 22:00:00",13.0270199,77.494094,OZONE,23,24,24
India,Karnataka,Bengaluru,"RVCE-Mailasandra, Bengaluru - KSPCB","10-10-2025 22:00:00",12.921418,77.502466,NH3,5,6,5
India,Karnataka,Bengaluru,"Sanegurava Halli, Bengaluru - KSPCB","10-10-2025 22:00:00",12.990328,77.5431385,CO,20,34,27
India,Karnataka,Bengaluru,"Silk Board, Bengaluru - KSPCB","10-10-2025 22:00:00",12.917348,77.622813,SO2,NA,NA,NA
India,Karnataka,Chamarajanagar,"Urban, Chamarajanagar - KSPCB","10-10-2025 22:00:00",11.55358,76.55521,PM10,29,58,40
India,Karnataka,Bengaluru,"Jayanagar 5th Block, Bengaluru - KSPCB","10-10-2025 22:00:00",12.920984,77.584908,NO2,6,57,30
India,Karnataka,Bengaluru,"Jigani, Bengaluru - KSPCB","10-10-2025 22:00:00",12.7816279,77.6299145,NO2,NA,NA,NA
India,Karnataka,Bengaluru,"Jigani, Bengaluru - KSPCB","10-10-2025 22:00:00",12.7816279,77.6299145,SO2,NA,NA,NA
India,Karnataka,Bengaluru,"Kasturi Nagar, Bengaluru - KSPCB","10-10-2025 22:00:00",13.003872,77.664217,PM2.5,58,60,59
India,Karnataka,Dharwad,"Kalabhavan, Dharwad - KSPCB","10-10-2025 22:00:00",15.459706,75.008381,CO,36,111,108
India,Karnataka,Kalaburagi,"Mahatma Basaveswar Colony, Kalaburgi - KSPCB","10-10-2025 22:00:00",17.336318,76.847397,PM2.5,26,50,37
India,Karnataka,Bengaluru,"Kasturi Nagar, Bengaluru - KSPCB","10-10-2025 22:00:00",13.003872,77.664217,CO,16,103,28
India,Karnataka,Bengaluru,"Peenya, Bengaluru - CPCB","10-10-2025 22:00:00",13.0270199,77.494094,NO2,16,23,20
India,Karnataka,Chikkamagaluru,"Kalyana Nagara, Chikkamagaluru - KSPCB","10-10-2025 22:00:00",13.328028,75.797056,PM2.5,NA,NA,NA
India,Karnataka,Chikkamagaluru,"Kalyana Nagara, Chikkamagaluru - KSPCB","10-10-2025 22:00:00",13.328028,75.797056,NH3,NA,NA,NA
India,Karnataka,Chikkamagaluru,"Kalyana Nagara, Chikkamagaluru - KSPCB","10-10-2025 22:00:00",13.328028,75.797056,OZONE,10,20,13
India,Karnataka,Davanagere,"Devaraj Urs Badavane, Davanagere - KSPCB","10-10-2025 22:00:00",14.475800,75.905200,PM10,12,73,30
India,Karnataka,Davanagere,"Devaraj Urs Badavane, Davanagere - KSPCB","10-10-2025 22:00:00",14.475800,75.905200,OZONE,24,25,24
India,Karnataka,Chikkaballapur,"Chikkaballapur Rural, Chikkaballapur - KSPCB","10-10-2025 22:00:00",13.428828,77.731418,NH3,NA,NA,NA
India,Karnataka,Chikkaballapur,"Chikkaballapur Rural, Chikkaballapur - KSPCB","10-10-2025 22:00:00",13.428828,77.731418,SO2,NA,NA,NA
India,Karnataka,Kalaburagi,"Mahatma Basaveswar Colony, Kalaburgi - KSPCB","10-10-2025 22:00:00",17.336318,76.847397,NO2,13,17,14
India,Karnataka,Bengaluru,"Hombegowda Nagar, Bengaluru - KSPCB","10-10-2025 22:00:00",12.938539,77.590100,SO2,6,17,12
India,Karnataka,Karwar,"KHB Colony, Karwar - KSPCB","10-10-2025 22:00:00",14.816666,74.141003,CO,10,10,10
India,Karnataka,Madikeri,"Stuart Hill, Madikeri - KSPCB","10-10-2025 22:00:00",12.415911,75.735050,PM2.5,2,49,24
India,Karnataka,Mangalore,"Kadri, Mangalore - KSPCB","10-10-2025 22:00:00",12.889250,74.853000,NH3,NA,NA,NA
India,Karnataka,Mysuru,"Hebbal 1st Stage, Mysuru - KSPCB","10-10-2025 22:00:00",12.21041,76.37376,CO,4,33,16
India,Karnataka,Ramanagara,"Vijay Nagar, Ramanagara - KSPCB","10-10-2025 22:00:00",12.733409,77.298051,OZONE,15,15,15
India,Kerala,Thiruvananthapuram,"Kariavattom, Thiruvananthapuram - Kerala PCB","10-10-2025 22:00:00",8.563700,76.886500,OZONE,36,37,36
India,Kerala,Thiruvananthapuram,"Plammoodu, Thiruvananthapuram - Kerala PCB","10-10-2025 22:00:00",8.5149093,76.9435879,PM2.5,NA,NA,NA
India,Karnataka,Shivamogga,"Vinoba Nagara, Shivamogga - KSPCB","10-10-2025 22:00:00",13.940000,75.555917,NO2,7,22,16
India,Karnataka,Shivamogga,"Vinoba Nagara, Shivamogga - KSPCB","10-10-2025 22:00:00",13.940000,75.555917,CO,14,25,20
India,Karnataka,Mangalore,"Kadri, Mangalore - KSPCB","10-10-2025 22:00:00",12.889250,74.853000,SO2,NA,NA,NA
India,Karnataka,Mangalore,"Kadri, Mangalore - KSPCB","10-10-2025 22:00:00",12.889250,74.853000,OZONE,NA,NA,NA
India,Kerala,Kollam,"Polayathode, Kollam - Kerala PCB","10-10-2025 22:00:00",8.8787,76.6073,NO2,NA,NA,NA
India,Kerala,Kollam,"Polayathode, Kollam - Kerala PCB","10-10-2025 22:00:00",8.8787,76.6073,OZONE,NA,NA,NA
India,Karnataka,Yadgir,"Collector Office, Yadgir - KSPCB","10-10-2025 22:00:00",16.7602,77.1428,PM2.5,11,60,34
India,Kerala,Eloor,"Udyogamandal, Eloor - Kerala PCB","10-10-2025 22:00:00",10.073232,76.302765,PM10,44,84,59
India,Kerala,Eloor,"Udyogamandal, Eloor - Kerala PCB","10-10-2025 22:00:00",10.073232,76.302765,SO2,1,1,1
India,"Madhya Pradesh",Gwalior,"Deen Dayal Nagar, Gwalior - MPPCB","10-10-2025 22:00:00",26.259242,78.216432,OZONE,NA,NA,NA
India,"Madhya Pradesh",Gwalior,"Maharaj Bada, Gwalior - MPPCB","10-10-2025 22:00:00",26.200388,78.147714,PM2.5,78,213,107
India,"Madhya Pradesh",Gwalior,"Maharaj Bada, Gwalior - MPPCB","10-10-2025 22:00:00",26.200388,78.147714,CO,6,104,69
India,"Madhya Pradesh",Indore,"Chhoti Gwaltoli, Indore - MPPCB","10-10-2025 22:00:00",22.4310,75.5213,PM10,137,280,192
India,"Madhya Pradesh",Bhopal,"Idgah Hills, Bhopal - MPPCB","10-10-2025 22:00:00",23.264759,77.381568,SO2,10,12,11
India,"Madhya Pradesh",Bhopal,"Paryavaran Parisar, Bhopal - MPPCB","10-10-2025 22:00:00",23.210494,77.425409,PM10,110,173,141
India,"Madhya Pradesh",Bhopal,"T T Nagar, Bhopal - MPPCB","10-10-2025 22:00:00",23.233584,77.400574,NH3,5,5,5
India,"Madhya Pradesh",Indore,"Regional Park, Indore - IMC","10-10-2025 22:00:00",22.6780,75.8559,PM2.5,NA,NA,NA
India,"Madhya Pradesh",Indore,"Residency Area, Indore - IMC","10-10-2025 22:00:00",22.7084,75.8815,PM10,45,172,130
India,"Madhya Pradesh",Indore,"Residency Area, Indore - IMC","10-10-2025 22:00:00",22.7084,75.8815,CO,14,19,15
India,"Madhya Pradesh",Indore,"Chhoti Gwaltoli, Indore - MPPCB","10-10-2025 22:00:00",22.4310,75.5213,SO2,11,43,17
India,"Madhya Pradesh",Indore,"Chhoti Gwaltoli, Indore - MPPCB","10-10-2025 22:00:00",22.4310,75.5213,OZONE,8,89,51
India,"Madhya Pradesh",Damoh,"Shrivastav Colony, Damoh - MPPCB","10-10-2025 22:00:00",23.81748678,79.446246,PM10,115,182,152
India,"Madhya Pradesh",Gwalior,"Deen Dayal Nagar, Gwalior - MPPCB","10-10-2025 22:00:00",26.259242,78.216432,PM2.5,NA,NA,NA
India,"Madhya Pradesh",Gwalior,"Deen Dayal Nagar, Gwalior - MPPCB","10-10-2025 22:00:00",26.259242,78.216432,NO2,NA,NA,NA
India,Kerala,Thrissur,"Corporation Ground, Thrissur - Kerala PCB","10-10-2025 22:00:00",10.532400,76.215900,CO,13,31,20
India,"Madhya Pradesh",Indore,"Maguda Nagar, Indore - IMC","10-10-2025 22:00:00",22.7524,75.8872,NH3,1,4,1
India,Maharashtra,Amravati,"Shivneri Colony, Amravati - MPCB","10-10-2025 22:00:00",20.9402359,77.7895248,OZONE,11,69,51
India,Maharashtra,Amravati,"Shri Shivaji Science College, Amravati - MPCB","10-10-2025 22:00:00",20.939198,77.765701,CO,27,98,34
India,Maharashtra,Aurangabad,"MIDC Chilkalthana, Aurangabad - MPCB","10-10-2025 22:00:00",19.875620,75.387310,PM10,NA,NA,NA
India,Maharashtra,Aurangabad,"More Chowk Waluj, Aurangabad - MPCB","10-10-2025 22:00:00",19.8389439,75.244448,NO2,15,24,19
India,"Madhya Pradesh",Katni,"Gole Bazar, Katni - MPPCB","10-10-2025 22:00:00",23.50016,80.23284,CO,34,40,36
India,"Madhya Pradesh",Maihar,"Sahilara, Maihar - KJS Cements","10-10-2025 22:00:00",24.2613009,80.7231783,SO2,6,6,6
India,"Madhya Pradesh",Mandideep,"Sector-D Industrial Area, Mandideep - MPPCB","10-10-2025 22:00:00",23.108440,77.511428,NH3,NA,NA,NA
India,"Madhya Pradesh",Mandideep,"Sector-D Industrial Area, Mandideep - MPPCB","10-10-2025 22:00:00",23.108440,77.511428,CO,16,74,39
India,"Madhya Pradesh",Satna,"Bandhavgar Colony, Satna - Birla Cement","10-10-2025 22:00:00",24.58434363,80.8549414,NO2,27,135,40
India,"Madhya Pradesh",Satna,"Bandhavgar Colony, Satna - Birla Cement","10-10-2025 22:00:00",24.58434363,80.8549414,SO2,18,20,19
India,"Madhya Pradesh",Satna,"Bandhavgar Colony, Satna - Birla Cement","10-10-2025 22:00:00",24.58434363,80.8549414,CO,18,38,24
India,"Madhya Pradesh",Singrauli,"Suryakiran Bhawan NCL, Singrauli - MPPCB","10-10-2025 22:00:00",24.108970,82.645580,CO,12,14,13
India,"Madhya Pradesh",Ratlam,"Shasthri Nagar, Ratlam - IPCA Lab","10-10-2025 22:00:00",23.331731,75.045981,PM2.5,93,300,157
India,"Madhya Pradesh",Sagar,"Civil Lines, Sagar - MPPCB","10-10-2025 22:00:00",23.838586,78.759431,OZONE,26,55,43
India,"Madhya Pradesh",Satna,"Bandhavgar Colony, Satna - Birla Cement","10-10-2025 22:00:00",24.58434363,80.8549414,PM2.5,42,45,44
India,Maharashtra,Ahmednagar,"Tarakpur, Ahmednagar - MPCB","10-10-2025 22:00:00",19.10122,74.73339,NO2,18,30,22
India,Maharashtra,Akola,"Ramdaspeth, Akola - MPCB","10-10-2025 22:00:00",20.719516,77.000253,PM2.5,48,71,60
India,"Madhya Pradesh",Katni,"Gole Bazar, Katni - MPPCB","10-10-2025 22:00:00",23.50016,80.23284,PM10,85,169,137
India,"Madhya Pradesh",Katni,"Gole Bazar, Katni - MPPCB","10-10-2025 22:00:00",23.50016,80.23284,NH3,3,3,3
India,"Madhya Pradesh",Jabalpur,"Govindh Bhavan Colony, Jabalpur - JMC","10-10-2025 22:00:00",23.163174,79.973061,CO,38,43,40
India,"Madhya Pradesh",Jabalpur,"Suhagi, Jabalpur - JMC","10-10-2025 22:00:00",23.218135,79.957770,OZONE,13,79,46
India,"Madhya Pradesh",Jabalpur,"Suhagi, Jabalpur - JMC","10-10-2025 22:00:00",23.218135,79.957770,PM2.5,44,72,54
India,Maharashtra,Chandrapur,"MIDC Khutala, Chandrapur - MPCB","10-10-2025 22:00:00",19.9775302,79.2337086,PM2.5,61,74,71
India,Maharashtra,Chandrapur,"MIDC Khutala, Chandrapur - MPCB","10-10-2025 22:00:00",19.9775302,79.2337086,CO,34,45,41
India,Maharashtra,Dhule,"Deopur, Dhule - MPCB","10-10-2025 22:00:00",20.918946,74.776388,PM2.5,NA,NA,NA
India,Maharashtra,Dhule,"Deopur, Dhule - MPCB","10-10-2025 22:00:00",20.918946,74.776388,NO2,NA,NA,NA
India,Maharashtra,Dhule,"Deopur, Dhule - MPCB","10-10-2025 22:00:00",20.918946,74.776388,CO,NA,NA,NA
India,Maharashtra,Jalgaon,"Prabhat Colony, Jalgaon - MPCB","10-10-2025 22:00:00",21.001264,75.565602,NO2,6,36,18
India,Maharashtra,Jalgaon,"Prabhat Colony, Jalgaon - MPCB","10-10-2025 22:00:00",21.001264,75.565602,OZONE,9,60,44
India,Maharashtra,Jalna,"Old MIDC, Jalna - MPCB","10-10-2025 22:00:00",19.854616,75.905894,PM2.5,23,87,44
India,Maharashtra,Jalna,"Old MIDC, Jalna - MPCB","10-10-2025 22:00:00",19.854616,75.905894,PM10,95,139,111
India,Maharashtra,Kolhapur,"Shivaji University, Kolhapur - MPCB","10-10-2025 22:00:00",16.6870449,74.2505872,PM2.5,37,164,80
India,Maharashtra,Kolhapur,"Shivaji University, Kolhapur - MPCB","10-10-2025 22:00:00",16.6870449,74.2505872,PM10,5,166,85
India,Maharashtra,Mumbai,"Chakala-Andheri East, Mumbai - IITM","10-10-2025 22:00:00",19.11074,72.86084,PM2.5,14,135,86
India,Maharashtra,Mumbai,"Chakala-Andheri East, Mumbai - IITM","10-10-2025 22:00:00",19.11074,72.86084,CO,15,59,31
India,Maharashtra,Mumbai,"Chembur, Mumbai - MPCB","10-10-2025 22:00:00",19.0364585,72.8954371,PM10,108,140,125
India,Maharashtra,Mumbai,"Chembur, Mumbai - MPCB","10-10-2025 22:00:00",19.0364585,72.8954371,CO,16,60,33
India,Maharashtra,Mumbai,"Chhatrapati Shivaji Intl. Airport (T2), Mumbai - MPCB","10-10-2025 22:00:00",19.10078,72.87462,PM2.5,52,72,60
India,Maharashtra,Mumbai,"Chhatrapati Shivaji Intl. Airport (T2), Mumbai - MPCB","10-10-2025 22:00:00",19.10078,72.87462,NO2,37,46,41
India,Maharashtra,Malegaon,"Mahesh Nagar, Malegaon - MPCB","10-10-2025 22:00:00",20.555712,74.529236,NH3,1,6,2
India,Maharashtra,Malegaon,"Mahesh Nagar, Malegaon - MPCB","10-10-2025 22:00:00",20.555712,74.529236,SO2,5,14,7
India,Maharashtra,Malegaon,"Mahesh Nagar, Malegaon - MPCB","10-10-2025 22:00:00",20.555712,74.529236,CO,14,48,32
India,Maharashtra,Mira-Bhayandar,"Bhayandar West, Mira-Bhayandar - MPCB","10-10-2025 22:00:00",19.296481,72.840923,NO2,12,87,56
India,Maharashtra,Kolhapur,"Sinchan Bhavan, Kolhapur - MPCB","10-10-2025 22:00:00",16.7143745,74.2426398,NH3,NA,NA,NA
India,Maharashtra,Latur,"Sawe Wadi, Latur - MPCB","10-10-2025 22:00:00",18.39963,76.57452,PM2.5,2,210,70
India,Maharashtra,Latur,"Sawe Wadi, Latur - MPCB","10-10-2025 22:00:00",18.39963,76.57452,PM10,9,120,94
India,Maharashtra,Mumbai,"Bandra Kurla Complex, Mumbai - IITM","10-10-2025 22:00:00",19.053536,72.84643,NO2,49,93,64
India,Maharashtra,Mumbai,"Bandra Kurla Complex, Mumbai - MPCB","10-10-2025 22:00:00",19.065931,72.862131,PM2.5,80,133,106
India,Maharashtra,Mumbai,"Borivali East, Mumbai - IITM","10-10-2025 22:00:00",19.23241,72.86895,NH3,4,6,5
India,Maharashtra,Mumbai,"Borivali East, Mumbai - MPCB","10-10-2025 22:00:00",19.2243333,72.8658113,NO2,1,16,6
India,Maharashtra,Belapur,"CBD Belapur, Belapur - MPCB","10-10-2025 22:00:00",19.0243902,73.0406721,PM2.5,67,168,117
India,Maharashtra,Belapur,"CBD Belapur, Belapur - MPCB","10-10-2025 22:00:00",19.0243902,73.0406721,NH3,3,10,6
India,Maharashtra,Latur,"Sawe Wadi, Latur - MPCB","10-10-2025 22:00:00",18.39963,76.57452,NO2,7,25,12
India,Maharashtra,Boisar,"Khaira, Boisar - MPCB","10-10-2025 22:00:00",19.786089,72.757971,NO2,6,18,10
India,Maharashtra,Mumbai,"Chhatrapati Shivaji Intl. Airport (T2), Mumbai - MPCB","10-10-2025 22:00:00",19.10078,72.87462,OZONE,7,7,7
India,Maharashtra,Mumbai,"Colaba, Mumbai - MPCB","10-10-2025 22:00:00",18.910000,72.820000,PM10,95,161,115
India,Maharashtra,Mumbai,"Colaba, Mumbai - MPCB","10-10-2025 22:00:00",18.910000,72.820000,SO2,NA,NA,NA
India,Maharashtra,Mumbai,"Kandivali East, Mumbai - MPCB","10-10-2025 22:00:00",19.205800,72.868200,PM2.5,71,234,151
India,Maharashtra,Mumbai,"Kandivali East, Mumbai - MPCB","10-10-2025 22:00:00",19.205800,72.868200,NH3,1,1,1
India,Maharashtra,Mumbai,"Kandivali West, Mumbai - BMC","10-10-2025 22:00:00",19.215859,72.831718,PM10,66,110,91
India,Maharashtra,Mumbai,"Mulund West, Mumbai - MPCB","10-10-2025 22:00:00",19.1750,72.9419,PM10,NA,NA,NA
India,Maharashtra,Mumbai,"Navy Nagar-Colaba, Mumbai - IITM","10-10-2025 22:00:00",18.897756,72.813320,NH3,NA,NA,NA
India,Maharashtra,Mumbai,"Navy Nagar-Colaba, Mumbai - IITM","10-10-2025 22:00:00",18.897756,72.813320,OZONE,9,90,74
India,Maharashtra,Mumbai,"Mazgaon, Mumbai - IITM","10-10-2025 22:00:00",18.96702,72.84214,PM2.5,82,160,133
India,Maharashtra,Mumbai,"Mindspace-Malad West, Mumbai - MPCB","10-10-2025 22:00:00",19.1878657,72.8304069,SO2,14,16,15
India,Maharashtra,Mumbai,"Khindipada-Bhandup West, Mumbai - IITM","10-10-2025 22:00:00",19.1653323,72.922099,CO,14,58,48
India,Maharashtra,Mumbai,"Kurla, Mumbai - MPCB","10-10-2025 22:00:00",19.0863,72.8888,PM2.5,84,232,113
India,Maharashtra,Mumbai,"Malad West, Mumbai - IITM","10-10-2025 22:00:00",19.19709,72.82204,PM2.5,39,158,91
India,Maharashtra,Mumbai,"Malad West, Mumbai - IITM","10-10-2025 22:00:00",19.19709,72.82204,SO2,NA,NA,NA
India,Maharashtra,Mumbai,"Malad West, Mumbai - IITM","10-10-2025 22:00:00",19.19709,72.82204,OZONE,5,99,77
India,Maharashtra,Mumbai,"Deonar, Mumbai - IITM","10-10-2025 22:00:00",19.04946,72.9230,PM2.5,85,171,114
India,Maharashtra,Mumbai,"Deonar, Mumbai - IITM","10-10-2025 22:00:00",19.04946,72.9230,PM10,131,243,172
India,Maharashtra,Mumbai,"Deonar, Mumbai - IITM","10-10-2025 22:00:00",19.04946,72.9230,NO2,10,70,26
India,Maharashtra,Mumbai,"Deonar, Mumbai - IITM","10-10-2025 22:00:00",19.04946,72.9230,NH3,9,20,14
India,Maharashtra,Mumbai,"Ghatkopar, Mumbai - BMC","10-10-2025 22:00:00",19.083694,72.920967,NO2,20,60,35
India,Maharashtra,Mumbai,"Sewri, Mumbai - BMC","10-10-2025 22:00:00",19.000084,72.856730,PM2.5,NA,NA,NA
India,Maharashtra,Mumbai,"Sewri, Mumbai - BMC","10-10-2025 22:00:00",19.000084,72.856730,CO,3,44,8
India,Maharashtra,Mumbai,"Shivaji Nagar, Mumbai - BMC","10-10-2025 22:00:00",19.060498,72.923356,PM2.5,NA,NA,NA
India,Maharashtra,Mumbai,"Shivaji Nagar, Mumbai - BMC","10-10-2025 22:00:00",19.060498,72.923356,CO,2,31,16
India,Maharashtra,Mumbai,"Siddharth Nagar-Worli, Mumbai - IITM","10-10-2025 22:00:00",19.000083,72.813993,CO,11,78,32
India,Maharashtra,Mumbai,"Sion, Mumbai - MPCB","10-10-2025 22:00:00",19.047000,72.874600,PM10,115,168,134
India,Maharashtra,Mumbai,"Sion, Mumbai - MPCB","10-10-2025 22:00:00",19.047000,72.874600,NO2,15,21,17
India,Maharashtra,Nashik,"Hirawadi, Nashik - MPCB","10-10-2025 22:00:00",20.021503,73.813844,PM10,83,264,172
India,Maharashtra,Nashik,"Hirawadi, Nashik - MPCB","10-10-2025 22:00:00",20.021503,73.813844,OZONE,1,73,41
India,Maharashtra,Nashik,"MIDC Ambad, Nashik - MPCB","10-10-2025 22:00:00",19.950220,73.731480,NO2,8,31,17
India,Maharashtra,Mumbai,"Vasai West, Mumbai - MPCB","10-10-2025 22:00:00",19.383200,72.820400,OZONE,10,26,20
India,Maharashtra,Mumbai,"Vile Parle West, Mumbai - MPCB","10-10-2025 22:00:00",19.10861,72.83622,NO2,6,30,23
India,Maharashtra,Nagpur,"Ambazari, Nagpur - MPCB","10-10-2025 22:00:00",21.121801,79.04952,PM2.5,47,97,71
India,Maharashtra,Nagpur,"Mahal, Nagpur - MPCB","10-10-2025 22:00:00",21.14472,79.107595,NO2,14,44,26
India,Maharashtra,Nagpur,"Opp GPO Civil Lines, Nagpur - MPCB","10-10-2025 22:00:00",21.152875,79.0517531,OZONE,12,43,32
India,Maharashtra,Nashik,"Gangapur Road, Nashik - MPCB","10-10-2025 22:00:00",20.0073285,73.7762427,SO2,1,4,3
India,Maharashtra,Mumbai,"Worli, Mumbai - MPCB","10-10-2025 22:00:00",18.9936162,72.8128113,PM10,107,128,118
India,Maharashtra,Mumbai,"Worli, Mumbai - MPCB","10-10-2025 22:00:00",18.9936162,72.8128113,CO,4,18,14
India,Maharashtra,"Navi Mumbai","Sanpada, Navi Mumbai - MPCB","10-10-2025 22:00:00",19.0575752,73.0151367,PM2.5,71,178,130
India,Maharashtra,"Navi Mumbai","Sanpada, Navi Mumbai - MPCB","10-10-2025 22:00:00",19.0575752,73.0151367,SO2,15,31,19
India,Maharashtra,"Navi Mumbai","Sanpada, Navi Mumbai - MPCB","10-10-2025 22:00:00",19.0575752,73.0151367,CO,8,70,37
India,Maharashtra,"Navi Mumbai","Sector-2E Kalamboli, Navi Mumbai - MPCB","10-10-2025 22:00:00",19.02579,73.10297,NO2,29,93,54
India,Maharashtra,Pune,"Bhumkar Nagar, Pune - IITM","10-10-2025 22:00:00",18.605770,73.749976,OZONE,3,54,43
India,Maharashtra,Pune,"Hadapsar, Pune - IITM","10-10-2025 22:00:00",18.501793,73.927532,PM2.5,48,70,58
India,Maharashtra,Pune,"Katraj Dairy, Pune - MPCB","10-10-2025 22:00:00",18.454450,73.854155,NH3,1,6,4
India,Maharashtra,Pune,"Katraj Dairy, Pune - MPCB","10-10-2025 22:00:00",18.454450,73.854155,CO,23,100,56
India,Maharashtra,Sangli,"Vijay Nagar, Sangli - MPCB","10-10-2025 22:00:00"," 16.5038",74.3623,NH3,1,4,3
India,Maharashtra,Solapur,"Dnyaneshwar Nagar, Solapur - MPCB","10-10-2025 22:00:00",17.6336264,75.9132495,PM2.5,67,144,101
India,Maharashtra,Solapur,"Dnyaneshwar Nagar, Solapur - MPCB","10-10-2025 22:00:00",17.6336264,75.9132495,NO2,5,63,16
India,Maharashtra,Pune,"Panchawati_Pashan, Pune - IITM","10-10-2025 22:00:00",18.536457,73.805454,PM10,77,134,103
India,Maharashtra,Pune,"Panchawati_Pashan, Pune - IITM","10-10-2025 22:00:00",18.536457,73.805454,OZONE,4,192,107
India,Maharashtra,Pune,"Savitribai Phule Pune University, Pune - MPCB","10-10-2025 22:00:00",18.547056,73.826908,NO2,NA,NA,NA
India,Maharashtra,Nashik,"Pandav Nagari, Nashik - MPCB","10-10-2025 22:00:00",19.9591346,73.7788008,PM10,91,151,120
India,Maharashtra,Nashik,"Pandav Nagari, Nashik - MPCB","10-10-2025 22:00:00",19.9591346,73.7788008,NO2,3,11,6
India,Maharashtra,Nashik,"Pandav Nagari, Nashik - MPCB","10-10-2025 22:00:00",19.9591346,73.7788008,OZONE,7,54,35
India,Maharashtra,"Navi Mumbai","Mahape, Navi Mumbai - MPCB","10-10-2025 22:00:00",19.1135051,73.008978,PM2.5,17,23,19
India,Maharashtra,"Navi Mumbai","Mahape, Navi Mumbai - MPCB","10-10-2025 22:00:00",19.1135051,73.008978,PM10,103,141,115
India,Maharashtra,Pimpri-Chinchwad,"Park Street Wakad, Pimpri Chinchwad - MPCB","10-10-2025 22:00:00",18.59051,73.77946,PM2.5,140,261,183
India,Maharashtra,"Navi Mumbai","Tondare-Taloja, Navi Mumbai - MPCB","10-10-2025 22:00:00",19.0630,73.1209,NO2,11,38,22
India,Maharashtra,Parbhani,"Masoom Colony, Parbhani - MPCB","10-10-2025 22:00:00",19.265594,76.761463,CO,8,16,12
India,Odisha,Bhubaneswar,"Patia, Bhubaneswar - OSPCB","10-10-2025 22:00:00",20.34652,85.81630,NO2,12,25,16
India,Odisha,Bhubaneswar,"Patia, Bhubaneswar - OSPCB","10-10-2025 22:00:00",20.34652,85.81630,NH3,8,18,12
India,Odisha,Bhubaneswar,"Patia, Bhubaneswar - OSPCB","10-10-2025 22:00:00",20.34652,85.81630,CO,36,52,42
India,Odisha,Bileipada,"Tata Township, Bileipada - OSPCB","10-10-2025 22:00:00",22.06156703,85.47409613,PM2.5,7,261,136
India,Odisha,Bileipada,"Tata Township, Bileipada - OSPCB","10-10-2025 22:00:00",22.06156703,85.47409613,PM10,13,366,182
India,Odisha,Bileipada,"Tata Township, Bileipada - OSPCB","10-10-2025 22:00:00",22.06156703,85.47409613,SO2,38,114,57
India,Maharashtra,Thane,"Upvan Fort, Thane - MPCB","10-10-2025 22:00:00",19.222279,72.957979,CO,40,62,51
India,Maharashtra,Ulhasnagar,"Sidhi Vinayak Nagar, Ulhasnagar - MPCB","10-10-2025 22:00:00",19.235581,73.159121,PM2.5,68,325,101
India,Maharashtra,Ulhasnagar,"Sidhi Vinayak Nagar, Ulhasnagar - MPCB","10-10-2025 22:00:00",19.235581,73.159121,NO2,13,39,24
India,Meghalaya,Shillong,"JN Stadium, Shillong - Meghalaya PCB","10-10-2025 22:00:00",25.5803419,91.8942571,PM10,NA,NA,NA
India,Odisha,Barbil,"Forest Office, Barbil - OSPCB","10-10-2025 22:00:00",22.1166054,85.3945546,CO,20,46,34
India,Odisha,Baripada,"Meher Colony, Baripada - OSPCB","10-10-2025 22:00:00",21.941841,86.728318,OZONE,5,41,28
India,Odisha,Bhubaneswar,"Lingraj Mandir, Bhubaneswar - OSPCB","10-10-2025 22:00:00",20.240790,85.836784,NH3,4,5,5
India,Odisha,Bhubaneswar,"Lingraj Mandir, Bhubaneswar - OSPCB","10-10-2025 22:00:00",20.240790,85.836784,CO,36,78,54
India,Odisha,Byasanagar,"Ferro Chrome Colony, Byasanagar - OSPCB","10-10-2025 22:00:00",20.94185,86.11510,CO,1,44,21
India,Odisha,Cuttack,"CDA Area, Cuttack - OSPCB","10-10-2025 22:00:00","20.48891     ","85.84768     ",SO2,4,13,7
India,Odisha,Keonjhar,"Jagamohanpur, Keonjhar - OSPCB","10-10-2025 22:00:00",21.643900,85.599355,NO2,17,30,24
India,Odisha,Keonjhar,"Jagamohanpur, Keonjhar - OSPCB","10-10-2025 22:00:00",21.643900,85.599355,NH3,10,18,14
India,Nagaland,Kohima,"PWD Junction, Kohima - NPCB","10-10-2025 22:00:00",25.6635413,94.0989878,NO2,3,4,3
India,Odisha,Angul,"Hakimapada, Angul - OSPCB","10-10-2025 22:00:00",20.832874,85.104082,PM10,62,140,102
India,Odisha,Angul,"Hakimapada, Angul - OSPCB","10-10-2025 22:00:00",20.832874,85.104082,CO,30,88,53
India,Odisha,Balasore,"Kalidaspur, Balasore - OSPCB","10-10-2025 22:00:00",21.51161,86.89088,NO2,NA,NA,NA
India,Odisha,Balasore,"Kalidaspur, Balasore - OSPCB","10-10-2025 22:00:00",21.51161,86.89088,CO,23,32,29
India,Odisha,Barbil,"Forest Office, Barbil - OSPCB","10-10-2025 22:00:00",22.1166054,85.3945546,SO2,7,13,9
India,Maharashtra,Solapur,"Ratandeep Housing Society, Solapur - MPCB","10-10-2025 22:00:00",17.65439,75.90649,NH3,2,19,4
India,Maharashtra,Solapur,"Ratandeep Housing Society, Solapur - MPCB","10-10-2025 22:00:00",17.65439,75.90649,CO,10,106,36
India,Meghalaya,Shillong,"Lumpyngngad, Shillong - Meghalaya PCB","10-10-2025 22:00:00",25.5586,91.8985,NO2,NA,NA,NA
India,Odisha,Nayagarh,"Dabuna, Nayagarh - OSPCB","10-10-2025 22:00:00",21.847279,85.416905,SO2,7,12,10
India,Rajasthan,Baran,"Bamboliya, Baran - RSPCB","10-10-2025 22:00:00",25.106006,76.469948,PM10,115,175,140
India,Rajasthan,Baran,"Bamboliya, Baran - RSPCB","10-10-2025 22:00:00",25.106006,76.469948,NH3,6,9,8
India,Rajasthan,Baran,"Bamboliya, Baran - RSPCB","10-10-2025 22:00:00",25.106006,76.469948,OZONE,1,98,57
India,Rajasthan,Barmer,"Railway Colony, Barmer - RSPCB","10-10-2025 22:00:00",25.747299,71.393989,NH3,1,5,3
India,Rajasthan,Bharatpur,"Krishna Nagar, Bharatpur - RSPCB","10-10-2025 22:00:00",27.215415,77.50873,NO2,10,29,19
India,Rajasthan,Bharatpur,"Krishna Nagar, Bharatpur - RSPCB","10-10-2025 22:00:00",27.215415,77.50873,SO2,2,12,6
India,Rajasthan,Bharatpur,"Krishna Nagar, Bharatpur - RSPCB","10-10-2025 22:00:00",27.215415,77.50873,CO,14,36,24
India,Rajasthan,Bhiwadi,"RIICO Ind. Area III, Bhiwadi - RSPCB","10-10-2025 22:00:00",28.194909,76.862296,NH3,8,22,14
India,Rajasthan,Bhiwadi,"RIICO Ind. Area III, Bhiwadi - RSPCB","10-10-2025 22:00:00",28.194909,76.862296,OZONE,7,53,28
India,Rajasthan,Bhiwadi,"Vasundhara Nagar_UIT, Bhiwadi - RSPCB","10-10-2025 22:00:00",28.207266,76.829265,PM10,131,340,200
India,Rajasthan,Bhiwadi,"Vasundhara Nagar_UIT, Bhiwadi - RSPCB","10-10-2025 22:00:00",28.207266,76.829265,NO2,14,124,44
India,Rajasthan,Bhiwadi,"Vasundhara Nagar_UIT, Bhiwadi - RSPCB","10-10-2025 22:00:00",28.207266,76.829265,SO2,3,14,7
India,Rajasthan,Bikaner,"MM Ground, Bikaner - RSPCB","10-10-2025 22:00:00",28.018792,73.292658,PM10,144,500,244
India,Punjab,Jalandhar,"Civil Line, Jalandhar - PPCB","10-10-2025 22:00:00",31.321907,75.578914,PM2.5,20,84,59
India,Punjab,Jalandhar,"Civil Line, Jalandhar - PPCB","10-10-2025 22:00:00",31.321907,75.578914,SO2,14,17,16
India,Punjab,Khanna,"Kalal Majra, Khanna - PPCB","10-10-2025 22:00:00","30.736056 ",76.209694,NH3,7,8,7
India,Punjab,Khanna,"Kalal Majra, Khanna - PPCB","10-10-2025 22:00:00","30.736056 ",76.209694,CO,58,82,68
India,Punjab,Khanna,"Kalal Majra, Khanna - PPCB","10-10-2025 22:00:00","30.736056 ",76.209694,OZONE,24,26,25
India,Puducherry,Puducherry,"Jawahar Nagar, Puducherry - PPCC","10-10-2025 22:00:00",11.9309,79.8027,OZONE,8,147,38
India,Punjab,Amritsar,"Golden Temple, Amritsar - PPCB","10-10-2025 22:00:00",31.620000,74.876512,PM2.5,78,84,80
India,Punjab,Amritsar,"Golden Temple, Amritsar - PPCB","10-10-2025 22:00:00",31.620000,74.876512,PM10,84,90,86
India,Punjab,Amritsar,"Golden Temple, Amritsar - PPCB","10-10-2025 22:00:00",31.620000,74.876512,NO2,4,17,9
India,Rajasthan,Alwar,"Moti Doongri, Alwar - RSPCB","10-10-2025 22:00:00",27.554793,76.611536,NO2,34,48,42
India,Rajasthan,Alwar,"Moti Doongri, Alwar - RSPCB","10-10-2025 22:00:00",27.554793,76.611536,SO2,34,58,42
India,Rajasthan,Banswara,"Rati Talai, Banswara - RSPCB","10-10-2025 22:00:00",23.555190,74.440010,PM10,118,184,146
India,Punjab,"Mandi Gobindgarh","RIMT University, Mandi Gobindgarh - PPCB","10-10-2025 22:00:00",30.649961,76.331442,PM10,13,253,134
India,Punjab,Patiala,"Model Town, Patiala - PPCB","10-10-2025 22:00:00",30.349388,76.366642,PM2.5,33,56,44
India,Punjab,Rupnagar,"Ratanpura, Rupnagar - Ambuja Cements","10-10-2025 22:00:00",31.0325454,76.5623046,PM2.5,18,161,57
India,Punjab,Bathinda,"Hardev Nagar, Bathinda - PPCB","10-10-2025 22:00:00",30.233011,74.907758,CO,4,21,13
India,Odisha,Rourkela,"Raghunathpali, Rourkela - OSPCB","10-10-2025 22:00:00",22.220833,84.809444,NO2,8,22,10
India,Rajasthan,Dungarpur,"Bhoiwada, Dungarpur - RSPCB","10-10-2025 22:00:00",23.837789,73.714926,PM10,NA,NA,NA
India,Rajasthan,Dungarpur,"Bhoiwada, Dungarpur - RSPCB","10-10-2025 22:00:00",23.837789,73.714926,OZONE,18,23,20
India,Rajasthan,Hanumangarh,"Housing Board, Hanumangarh - RSPCB","10-10-2025 22:00:00",29.610750,74.283608,PM2.5,70,301,119
India,Rajasthan,Hanumangarh,"Housing Board, Hanumangarh - RSPCB","10-10-2025 22:00:00",29.610750,74.283608,PM10,106,253,142
India,Rajasthan,Jaipur,"Adarsh Nagar, Jaipur - RSPCB","10-10-2025 22:00:00",26.902909,75.836858,PM2.5,118,230,153
India,Rajasthan,Jaipur,"Adarsh Nagar, Jaipur - RSPCB","10-10-2025 22:00:00",26.902909,75.836858,CO,10,75,31
India,Rajasthan,Jhunjhunu,"Indra Nagar, Jhunjhunu - RSPCB","10-10-2025 22:00:00",28.108988,75.386577,CO,8,32,17
India,Rajasthan,Jodhpur,"Collectorate, Jodhpur - RSPCB","10-10-2025 22:00:00",26.268249,73.0193853,CO,5,101,68
India,Rajasthan,Jodhpur,"Digari Kalan, Jodhpur - RSPCB","10-10-2025 22:00:00",26.295810,73.082283,NO2,5,52,24
India,Rajasthan,Jodhpur,"Digari Kalan, Jodhpur - RSPCB","10-10-2025 22:00:00",26.295810,73.082283,OZONE,6,137,63
India,Rajasthan,Jodhpur,"Jhalamand, Jodhpur - RSPCB","10-10-2025 22:00:00",26.215415,73.070156,NO2,7,45,19
India,Rajasthan,Jodhpur,"Jhalamand, Jodhpur - RSPCB","10-10-2025 22:00:00",26.215415,73.070156,NH3,6,17,11
India,Rajasthan,Jaipur,"Shastri Nagar, Jaipur - RSPCB","10-10-2025 22:00:00",26.9502929,75.730943,OZONE,11,43,31
India,Rajasthan,Jaisalmer,"Sadar Bazar, Jaisalmer - RSPCB","10-10-2025 22:00:00",26.912329,70.909168,OZONE,25,86,64
India,Rajasthan,Jalore,"Mudtra Sili, Jalore - RSPCB","10-10-2025 22:00:00",25.344694,72.626208,NO2,12,115,33
India,Rajasthan,Jalore,"Mudtra Sili, Jalore - RSPCB","10-10-2025 22:00:00",25.344694,72.626208,SO2,3,6,4
India,Rajasthan,Chittorgarh,"Shastri Nagar, Chittorgarh - RSPCB","10-10-2025 22:00:00",24.892047,74.623527,PM10,70,154,101
India,Rajasthan,Chittorgarh,"Shastri Nagar, Chittorgarh - RSPCB","10-10-2025 22:00:00",24.892047,74.623527,NH3,1,3,3
India,Rajasthan,Churu,"Subash Chowk, Churu - RSPCB","10-10-2025 22:00:00",28.296139,74.961696,PM2.5,52,113,78
India,Rajasthan,Bikaner,"MM Ground, Bikaner - RSPCB","10-10-2025 22:00:00",28.018792,73.292658,CO,12,139,69
India,Rajasthan,Bikaner,"MM Ground, Bikaner - RSPCB","10-10-2025 22:00:00",28.018792,73.292658,OZONE,5,85,46
India,Rajasthan,Bundi,"New Colony, Bundi - RSPCB","10-10-2025 22:00:00",25.435774,75.644272,PM10,87,159,105
India,Rajasthan,Churu,"Subash Chowk, Churu - RSPCB","10-10-2025 22:00:00",28.296139,74.961696,OZONE,4,116,85
India,Rajasthan,Dausa,"Khatikan Mohalla, Dausa - RSPCB","10-10-2025 22:00:00",26.895552,76.334753,PM2.5,27,129,67
India,Rajasthan,Dausa,"Khatikan Mohalla, Dausa - RSPCB","10-10-2025 22:00:00",26.895552,76.334753,PM10,98,194,131
India,Rajasthan,Jaipur,"Police Commissionerate, Jaipur - RSPCB","10-10-2025 22:00:00",26.9164092,75.7994901,PM10,145,204,171
India,Rajasthan,Jaipur,"RIICO Sitapura, Jaipur - RSPCB","10-10-2025 22:00:00",26.786682,75.827928,PM10,123,440,230
India,Rajasthan,Jaipur,"RIICO Sitapura, Jaipur - RSPCB","10-10-2025 22:00:00",26.786682,75.827928,OZONE,10,130,63
India,Rajasthan,Jaipur,"Sector-2 Murlipura, Jaipur - RSPCB","10-10-2025 22:00:00",26.960669,75.771817,PM2.5,29,301,102
India,Rajasthan,Jaipur,"Sector-2 Murlipura, Jaipur - RSPCB","10-10-2025 22:00:00",26.960669,75.771817,NO2,18,94,46
India,Rajasthan,Kota,"Shrinath Puram, Kota - RSPCB","10-10-2025 22:00:00",25.14389,75.821256,NH3,1,6,2
India,Rajasthan,Kota,"Shrinath Puram, Kota - RSPCB","10-10-2025 22:00:00",25.14389,75.821256,CO,2,98,59
India,Rajasthan,Nagaur,"Karni Colony, Nagaur - RSPCB","10-10-2025 22:00:00",27.213494,73.734444,PM10,114,286,165
India,Rajasthan,Pali,"Indira Colony Vistar, Pali - RSPCB","10-10-2025 22:00:00",25.771061," 73.340227",NO2,13,42,34
India,Rajasthan,Pali,"Indira Colony Vistar, Pali - RSPCB","10-10-2025 22:00:00",25.771061," 73.340227",NH3,8,29,12
India,Rajasthan,Pratapgarh,"Pragati Nagar, Pratapgarh - RSPCB","10-10-2025 22:00:00",24.041198,74.780702,SO2,3,5,3
India,Rajasthan,Tonk,"Shastri Nagar, Tonk - RSPCB","10-10-2025 22:00:00",26.159933,75.780517,SO2,1,9,2
India,Rajasthan,Tonk,"Shastri Nagar, Tonk - RSPCB","10-10-2025 22:00:00",26.159933,75.780517,CO,3,64,30
India,Rajasthan,Udaipur,"Ashok Nagar, Udaipur - RSPCB","10-10-2025 22:00:00",24.5886166,73.6321397,PM2.5,56,214,109
India,Rajasthan,Udaipur,"Ashok Nagar, Udaipur - RSPCB","10-10-2025 22:00:00",24.5886166,73.6321397,NH3,2,6,4
India,Rajasthan,Udaipur,"Ashok Nagar, Udaipur - RSPCB","10-10-2025 22:00:00",24.5886166,73.6321397,SO2,10,24,15
India,Rajasthan,Rajsamand,"Dhoinda, Rajsamand - RSPCB","10-10-2025 22:00:00",25.036360,73.883502,NO2,9,40,20
India,Rajasthan,"Sawai Madhopur","Sahu Nagar, Sawai Madhopur - RSPCB","10-10-2025 22:00:00",26.031443,76.359327,PM2.5,23,158,54
India,Rajasthan,Sikar,"Radhakishan Pura, Sikar - RSPCB","10-10-2025 22:00:00",27.608912,75.153302,PM2.5,77,290,127
India,Rajasthan,Sirohi,"Vedhaynath Colony, Sirohi - RSPCB","10-10-2025 22:00:00",24.885261,72.857549,PM2.5,35,57,45
India,Rajasthan,Sirohi,"Vedhaynath Colony, Sirohi - RSPCB","10-10-2025 22:00:00",24.885261,72.857549,PM10,109,149,123
India,Rajasthan,Sirohi,"Vedhaynath Colony, Sirohi - RSPCB","10-10-2025 22:00:00",24.885261,72.857549,NO2,7,66,31
India,Rajasthan,Sirohi,"Vedhaynath Colony, Sirohi - RSPCB","10-10-2025 22:00:00",24.885261,72.857549,NH3,1,4,2
India,Rajasthan,Sirohi,"Vedhaynath Colony, Sirohi - RSPCB","10-10-2025 22:00:00",24.885261,72.857549,SO2,4,12,6
India,Rajasthan,Karauli,"Satyawati Vihar, Karauli - RSPCB","10-10-2025 22:00:00",26.506177,77.025989,SO2,7,30,26
India,Rajasthan,Karauli,"Satyawati Vihar, Karauli - RSPCB","10-10-2025 22:00:00",26.506177,77.025989,OZONE,1,52,31
India,Rajasthan,Kota,"Dhanmandi, Kota - RSPCB","10-10-2025 22:00:00",25.164090,75.858137,PM2.5,43,103,66
India,Rajasthan,Kota,"Dhanmandi, Kota - RSPCB","10-10-2025 22:00:00",25.164090,75.858137,CO,8,100,43
India,Rajasthan,Kota,"Dhanmandi, Kota - RSPCB","10-10-2025 22:00:00",25.164090,75.858137,OZONE,2,123,56
India,Rajasthan,Kota,"Nayapura, Kota - RSPCB","10-10-2025 22:00:00",25.196024,75.855668,PM2.5,45,97,69
India,TamilNadu,Ariyalur,"Keelapalur, Ariyalur - TNPCB","10-10-2025 22:00:00",11.06825,79.07033,SO2,12,13,13
India,TamilNadu,Chengalpattu,"Crescent University, Chengalpattu - TNPCB","10-10-2025 22:00:00",12.8777316,80.0834807,PM2.5,43,92,62
India,Rajasthan,Pratapgarh,"Pragati Nagar, Pratapgarh - RSPCB","10-10-2025 22:00:00",24.041198,74.780702,OZONE,28,94,74
India,Rajasthan,Kota,"Nayapura, Kota - RSPCB","10-10-2025 22:00:00",25.196024,75.855668,OZONE,2,130,62
India,TamilNadu,Chennai,"Manali Village, Chennai - TNPCB","10-10-2025 22:00:00",13.1662,80.2584,NO2,3,5,4
India,TamilNadu,Chennai,"Manali Village, Chennai - TNPCB","10-10-2025 22:00:00",13.1662,80.2584,NH3,1,1,1
India,TamilNadu,Chennai,"Manali Village, Chennai - TNPCB","10-10-2025 22:00:00",13.1662,80.2584,OZONE,32,50,37
India,TamilNadu,Chennai,"Perungudi, Chennai - TNPCB","10-10-2025 22:00:00",12.9533,80.2357,PM2.5,NA,NA,NA
India,TamilNadu,Chennai,"Royapuram, Chennai - TNPCB","10-10-2025 22:00:00",13.1036,80.2909,PM10,27,85,47
India,TamilNadu,Chennai,"Royapuram, Chennai - TNPCB","10-10-2025 22:00:00",13.1036,80.2909,NH3,3,6,4
India,TamilNadu,Chennai,"Velachery Res. Area, Chennai - CPCB","10-10-2025 22:00:00",13.0052189,80.2398125,PM2.5,34,70,48
India,TamilNadu,Nagapattinam,"Velippalayam, Nagapattinam - TNPCB","10-10-2025 22:00:00",10.798548,79.838212,PM2.5,13,53,31
India,TamilNadu,Nagapattinam,"Velippalayam, Nagapattinam - TNPCB","10-10-2025 22:00:00",10.798548,79.838212,NH3,2,2,2
India,TamilNadu,Nagapattinam,"Velippalayam, Nagapattinam - TNPCB","10-10-2025 22:00:00",10.798548,79.838212,CO,12,23,17
India,TamilNadu,Namakkal,"Ponnusamy Nagar, Namakkal - TNPCB","10-10-2025 22:00:00",11.273992,78.163545,PM10,NA,NA,NA
India,TamilNadu,Namakkal,"Ponnusamy Nagar, Namakkal - TNPCB","10-10-2025 22:00:00",11.273992,78.163545,NH3,NA,NA,NA
India,TamilNadu,Namakkal,"Ponnusamy Nagar, Namakkal - TNPCB","10-10-2025 22:00:00",11.273992,78.163545,CO,10,11,10
India,TamilNadu,Coimbatore,"PSG College of Arts and Science, Coimbatore - TNPCB","10-10-2025 22:00:00",11.0328,77.0349,OZONE,4,6,5
India,TamilNadu,Coimbatore,"SIDCO Kurichi, Coimbatore - TNPCB","10-10-2025 22:00:00",10.942451,76.978996,NH3,NA,NA,NA
India,TamilNadu,Cuddalore,"Semmandalam, Cuddalore - TNPCB","10-10-2025 22:00:00",11.7637683,79.7499835,PM10,4,37,22
India,TamilNadu,Cuddalore,"Semmandalam, Cuddalore - TNPCB","10-10-2025 22:00:00",11.7637683,79.7499835,NO2,1,11,5
India,TamilNadu,Cuddalore,"Semmandalam, Cuddalore - TNPCB","10-10-2025 22:00:00",11.7637683,79.7499835,OZONE,1,2,2
India,TamilNadu,Chennai,"Kodungaiyur, Chennai - TNPCB","10-10-2025 22:00:00",13.1278,80.2642,NH3,4,12,6
India,TamilNadu,Chennai,"Kodungaiyur, Chennai - TNPCB","10-10-2025 22:00:00",13.1278,80.2642,CO,6,96,28
India,TamilNadu,Hosur,"SIPCOT Phase-1, Hosur - TNPCB","10-10-2025 22:00:00",12.746998,77.813811,NO2,1,2,2
India,TamilNadu,Hosur,"SIPCOT Phase-1, Hosur - TNPCB","10-10-2025 22:00:00",12.746998,77.813811,NH3,1,1,1
India,TamilNadu,Chennai,"Alandur Bus Depot, Chennai - CPCB","10-10-2025 22:00:00",12.9099161,80.1076538,NO2,13,28,19
India,TamilNadu,Cuddalore,"Kudikadu, Cuddalore - TNPCB","10-10-2025 22:00:00",11.6829898,79.7532099,NO2,19,20,19
India,TamilNadu,Karur,"Kamadenu Nagar, Karur - TNPCB","10-10-2025 22:00:00",10.967820,78.080882,CO,6,44,6
India,Telangana,Hyderabad,"Kokapet, Hyderabad - TSPCB","10-10-2025 22:00:00",17.393559,78.339194,PM10,65,112,78
India,Telangana,Hyderabad,"Kokapet, Hyderabad - TSPCB","10-10-2025 22:00:00",17.393559,78.339194,SO2,10,16,13
India,Telangana,Hyderabad,"Kokapet, Hyderabad - TSPCB","10-10-2025 22:00:00",17.393559,78.339194,OZONE,20,32,27
India,Telangana,Hyderabad,"Kompally Municipal Office, Hyderabad - TSPCB","10-10-2025 22:00:00",17.544899,78.486949,NO2,12,14,13
India,Telangana,Hyderabad,"Kompally Municipal Office, Hyderabad - TSPCB","10-10-2025 22:00:00",17.544899,78.486949,CO,16,18,16
India,Telangana,Hyderabad,"Kompally Municipal Office, Hyderabad - TSPCB","10-10-2025 22:00:00",17.544899,78.486949,OZONE,26,38,36
India,Telangana,Hyderabad,"Nacharam_TSIIC IALA, Hyderabad - TSPCB","10-10-2025 22:00:00",17.429398,78.569354,OZONE,16,33,27
India,Telangana,Hyderabad,"New Malakpet, Hyderabad - TSPCB","10-10-2025 22:00:00",17.37206,78.50864,NH3,3,4,3
India,TamilNadu,Thanjavur,"Parisutham Nagar, Thanjavur - TNPCB","10-10-2025 22:00:00",10.7654824,79.1389968,OZONE,8,22,16
India,TamilNadu,Thoothukudi,"Meelavittan, Thoothukudi - TNPCB","10-10-2025 22:00:00","8.816428 ",78.099039,CO,1,149,46
India,TamilNadu,Tiruchirappalli,"St Joseph College, Tiruchirappalli - TNPCB","10-10-2025 22:00:00",10.830158,78.691849,PM10,15,59,26
India,TamilNadu,Tiruchirappalli,"St Joseph College, Tiruchirappalli - TNPCB","10-10-2025 22:00:00",10.830158,78.691849,CO,5,6,6
India,TamilNadu,Tirunelveli,"Municipal Corporation Office, Tirunelveli - TNPCB","10-10-2025 22:00:00",8.728442,77.6962,PM2.5,18,35,26
India,TamilNadu,Tirunelveli,"Municipal Corporation Office, Tirunelveli - TNPCB","10-10-2025 22:00:00",8.728442,77.6962,SO2,19,22,20
India,Telangana,Hyderabad,"ICRISAT Patancheru, Hyderabad - TSPCB","10-10-2025 22:00:00",17.518400,78.278777,NO2,4,12,8
India,Telangana,Hyderabad,"ICRISAT Patancheru, Hyderabad - TSPCB","10-10-2025 22:00:00",17.518400,78.278777,OZONE,5,53,41
India,Telangana,Hyderabad,"IDA Pashamylaram, Hyderabad - TSPCB","10-10-2025 22:00:00",17.5316895,78.218939,PM2.5,152,184,168
India,Telangana,Hyderabad,"IDA Pashamylaram, Hyderabad - TSPCB","10-10-2025 22:00:00",17.5316895,78.218939,PM10,128,158,146
India,Telangana,Hyderabad,"IDA Pashamylaram, Hyderabad - TSPCB","10-10-2025 22:00:00",17.5316895,78.218939,NO2,12,36,22
India,Telangana,Hyderabad,"IDA Pashamylaram, Hyderabad - TSPCB","10-10-2025 22:00:00",17.5316895,78.218939,NH3,2,5,3
India,Telangana,Hyderabad,"IDA Pashamylaram, Hyderabad - TSPCB","10-10-2025 22:00:00",17.5316895,78.218939,SO2,3,10,6
India,TamilNadu,Ranipet,"VOC Nagar_SIPCOT, Ranipet - TNPCB","10-10-2025 22:00:00",12.952707,79.30394,NH3,8,35,10
India,TamilNadu,Ranipet,"VOC Nagar_SIPCOT, Ranipet - TNPCB","10-10-2025 22:00:00",12.952707,79.30394,OZONE,1,2,1
India,TamilNadu,Thanjavur,"Parisutham Nagar, Thanjavur - TNPCB","10-10-2025 22:00:00",10.7654824,79.1389968,NO2,3,3,3
India,Telangana,Hyderabad,"Bollaram Industrial Area, Hyderabad - TSPCB","10-10-2025 22:00:00",17.540891,78.358528,PM10,96,136,119
India,Telangana,Hyderabad,"Bollaram Industrial Area, Hyderabad - TSPCB","10-10-2025 22:00:00",17.540891,78.358528,NH3,3,5,4
India,Telangana,Hyderabad,"Central University, Hyderabad - TSPCB","10-10-2025 22:00:00",17.460103,78.334361,PM10,NA,NA,NA
India,TamilNadu,Perundurai,"SIPCOT Industrial Park, Perundurai - TNPCB","10-10-2025 22:00:00",11.258242,77.552761,NO2,6,9,7
India,TamilNadu,Perundurai,"SIPCOT Industrial Park, Perundurai - TNPCB","10-10-2025 22:00:00",11.258242,77.552761,OZONE,33,43,40
India,TamilNadu,Ramanathapuram,"Chalai Bazaar, Ramanathapuram - TNPCB","10-10-2025 22:00:00",9.36399,78.831977,PM2.5,21,57,34
India,TamilNadu,Ramanathapuram,"Chalai Bazaar, Ramanathapuram - TNPCB","10-10-2025 22:00:00",9.36399,78.831977,PM10,16,71,36
India,Telangana,Hyderabad,"Central University, Hyderabad - TSPCB","10-10-2025 22:00:00",17.460103,78.334361,OZONE,7,24,18
India,Telangana,Hyderabad,"ECIL Kapra, Hyderabad - TSPCB","10-10-2025 22:00:00",17.470431,78.566959,SO2,6,18,11
India,Telangana,Hyderabad,"Somajiguda, Hyderabad - TSPCB","10-10-2025 22:00:00",17.417094,78.457437,SO2,21,32,25
India,Telangana,Hyderabad,"Zoo Park, Hyderabad - TSPCB","10-10-2025 22:00:00",17.349694,78.451437,NH3,NA,NA,NA
India,Tripura,Agartala,"Bardowali, Agartala - Tripura SPCB","10-10-2025 22:00:00",23.8175497,91.2726974,PM10,18,40,31
India,Tripura,Agartala,"Bardowali, Agartala - Tripura SPCB","10-10-2025 22:00:00",23.8175497,91.2726974,CO,1,4,2
India,Uttar_Pradesh,Bareilly,"Civil Lines, Bareilly - UPPCB","10-10-2025 22:00:00",28.359581,79.414455,PM10,16,43,27
India,Uttar_Pradesh,Bareilly,"Civil Lines, Bareilly - UPPCB","10-10-2025 22:00:00",28.359581,79.414455,NO2,2,3,2
India,Uttar_Pradesh,Bareilly,"Rajendra Nagar, Bareilly - UPPCB","10-10-2025 22:00:00",28.38910936,79.42963708,NH3,1,1,1
India,Uttar_Pradesh,Bareilly,"Rajendra Nagar, Bareilly - UPPCB","10-10-2025 22:00:00",28.38910936,79.42963708,SO2,39,41,40
India,Uttar_Pradesh,Agra,"Sanjay Palace, Agra - UPPCB","10-10-2025 22:00:00",27.19865833,78.00598056,PM2.5,15,88,38
India,Uttar_Pradesh,Agra,"Sector-3B Avas Vikas Colony, Agra - UPPCB","10-10-2025 22:00:00",27.19412,77.96237,NO2,27,30,28
India,Telangana,Hyderabad,"Ramachandrapuram, Hyderabad - TSPCB","10-10-2025 22:00:00",17.528544,78.286195,NO2,9,14,11
India,Telangana,Hyderabad,"Sanathnagar, Hyderabad - TSPCB","10-10-2025 22:00:00",17.4559458,78.4332152,CO,4,18,8
India,Uttar_Pradesh,Firozabad,"Nagla Bhau, Firozabad - UPPCB","10-10-2025 22:00:00",27.168897,78.376960,PM2.5,19,44,29
India,Uttar_Pradesh,Firozabad,"Nagla Bhau, Firozabad - UPPCB","10-10-2025 22:00:00",27.168897,78.376960,SO2,15,31,21
India,Uttar_Pradesh,Baghpat,"Sardar Patel Inter College, Baghpat - UPPCB","10-10-2025 22:00:00",28.964949,77.278761,CO,28,80,54
India,Uttar_Pradesh,Agra,"Sector-3B Avas Vikas Colony, Agra - UPPCB","10-10-2025 22:00:00",27.19412,77.96237,SO2,10,11,10
India,Telangana,Hyderabad,"New Malakpet, Hyderabad - TSPCB","10-10-2025 22:00:00",17.37206,78.50864,SO2,5,16,13
India,Uttar_Pradesh,Agra,"Manoharpur, Agra - UPPCB","10-10-2025 22:00:00",27.23711,78.01936,PM10,63,104,81
India,Uttar_Pradesh,Kanpur,"NSI Kalyanpur, Kanpur - UPPCB","10-10-2025 22:00:00",26.509954,80.249612,SO2,12,18,15
India,Uttar_Pradesh,Kanpur,"NSI Kalyanpur, Kanpur - UPPCB","10-10-2025 22:00:00",26.509954,80.249612,CO,24,58,38
India,Uttar_Pradesh,Kanpur,"NSI Kalyanpur, Kanpur - UPPCB","10-10-2025 22:00:00",26.509954,80.249612,OZONE,23,27,24
India,Uttar_Pradesh,Kanpur,"Nehru Nagar, Kanpur - UPPCB","10-10-2025 22:00:00",26.4703136,80.3229863,NO2,36,56,45
India,Uttar_Pradesh,Kanpur,"Nehru Nagar, Kanpur - UPPCB","10-10-2025 22:00:00",26.4703136,80.3229863,OZONE,6,62,27
India,Uttar_Pradesh,Khurja,"Kalindi Kunj, Khurja - UPPCB","10-10-2025 22:00:00",28.2348927,77.8683002,NH3,1,1,1
India,Uttar_Pradesh,Khurja,"Kalindi Kunj, Khurja - UPPCB","10-10-2025 22:00:00",28.2348927,77.8683002,SO2,14,15,15
India,Uttar_Pradesh,Lucknow,"B R Ambedkar University, Lucknow - UPPCB","10-10-2025 22:00:00",26.766433,80.927299,CO,46,51,49
India,Uttar_Pradesh,Lucknow,"Gomti Nagar, Lucknow - UPPCB","10-10-2025 22:00:00",26.868120,81.005119,PM2.5,59,319,140
India,Uttar_Pradesh,Lucknow,"Gomti Nagar, Lucknow - UPPCB","10-10-2025 22:00:00",26.868120,81.005119,PM10,48,151,86
India,Uttar_Pradesh,Lucknow,"Gomti Nagar, Lucknow - UPPCB","10-10-2025 22:00:00",26.868120,81.005119,NO2,8,10,9
India,Uttar_Pradesh,Lucknow,"Gomti Nagar, Lucknow - UPPCB","10-10-2025 22:00:00",26.868120,81.005119,CO,35,40,39
India,Uttar_Pradesh,Ghaziabad,"Loni, Ghaziabad - UPPCB","10-10-2025 22:00:00",28.757294,77.278792,OZONE,28,104,74
India,Uttar_Pradesh,Ghaziabad,"Vasundhara, Ghaziabad - UPPCB","10-10-2025 22:00:00",28.6603346,77.3572563,NH3,9,10,10
India,Uttar_Pradesh,Gorakhpur,"Madan Mohan Malaviya University of Technology, Gorakhpur - UPPCB","10-10-2025 22:00:00",26.730136,83.433859,OZONE,11,302,42
India,Uttar_Pradesh,"Greater Noida","Knowledge Park - III, Greater Noida - UPPCB","10-10-2025 22:00:00",28.47272,77.482000,PM10,157,500,234
India,Uttar_Pradesh,"Greater Noida","Knowledge Park - III, Greater Noida - UPPCB","10-10-2025 22:00:00",28.47272,77.482000,NH3,7,10,8
India,Uttar_Pradesh,Lucknow,"Lalbagh, Lucknow - CPCB","10-10-2025 22:00:00",26.8458805,80.9365541,CO,4,135,79
India,Uttar_Pradesh,Lucknow,"Talkatora District Industries Center, Lucknow - CPCB","10-10-2025 22:00:00",26.83399722,80.8917361,PM2.5,60,187,93
India,Uttar_Pradesh,Lucknow,"Talkatora District Industries Center, Lucknow - CPCB","10-10-2025 22:00:00",26.83399722,80.8917361,NO2,54,59,56
India,Uttar_Pradesh,Lucknow,"Talkatora District Industries Center, Lucknow - CPCB","10-10-2025 22:00:00",26.83399722,80.8917361,OZONE,9,52,34
India,Uttar_Pradesh,Meerut,"Ganga Nagar, Meerut - UPPCB","10-10-2025 22:00:00",28.999264,77.7590354,PM2.5,51,177,83
India,Uttar_Pradesh,Meerut,"Ganga Nagar, Meerut - UPPCB","10-10-2025 22:00:00",28.999264,77.7590354,NO2,31,65,39
India,Uttar_Pradesh,Meerut,"Ganga Nagar, Meerut - UPPCB","10-10-2025 22:00:00",28.999264,77.7590354,OZONE,34,118,60
India,Uttar_Pradesh,Meerut,"Jai Bhim Nagar, Meerut - UPPCB","10-10-2025 22:00:00",28.9535882,77.7622941,NO2,10,52,27
India,Uttar_Pradesh,Meerut,"Pallavpuram Phase 2, Meerut - UPPCB","10-10-2025 22:00:00",29.063510,77.709723,PM2.5,50,152,90
India,Uttar_Pradesh,Meerut,"Pallavpuram Phase 2, Meerut - UPPCB","10-10-2025 22:00:00",29.063510,77.709723,PM10,104,158,135
India,Uttar_Pradesh,Jhansi,"Shivaji Nagar, Jhansi - UPPCB","10-10-2025 22:00:00",25.4547,78.6039,NH3,4,4,4
India,Uttar_Pradesh,Jhansi,"Shivaji Nagar, Jhansi - UPPCB","10-10-2025 22:00:00",25.4547,78.6039,CO,8,69,28
India,Uttar_Pradesh,Kanpur,"FTI Kidwai Nagar, Kanpur - UPPCB","10-10-2025 22:00:00",26.428282,80.327067,PM2.5,8,500,96
India,Uttar_Pradesh,Kanpur,"FTI Kidwai Nagar, Kanpur - UPPCB","10-10-2025 22:00:00",26.428282,80.327067,PM10,14,161,108
India,Uttar_Pradesh,Kanpur,"FTI Kidwai Nagar, Kanpur - UPPCB","10-10-2025 22:00:00",26.428282,80.327067,CO,28,34,30
India,Uttar_Pradesh,Firozabad,"Vibhab Nagar, Firozabad - UPPCB","10-10-2025 22:00:00",27.1594,78.3953,PM10,NA,NA,NA
India,Uttar_Pradesh,Ghaziabad,"Indirapuram, Ghaziabad - UPPCB","10-10-2025 22:00:00",28.646233,77.358075,PM2.5,76,258,110
India,Uttar_Pradesh,Lucknow,"Kukrail Picnic Spot-1, Lucknow - UPPCB","10-10-2025 22:00:00",26.90723,80.98579,PM2.5,34,73,58
India,Uttar_Pradesh,Lucknow,"Kukrail Picnic Spot-1, Lucknow - UPPCB","10-10-2025 22:00:00",26.90723,80.98579,SO2,23,25,24
India,Uttar_Pradesh,Lucknow,"Kukrail Picnic Spot-1, Lucknow - UPPCB","10-10-2025 22:00:00",26.90723,80.98579,CO,10,18,15
India,Uttar_Pradesh,Lucknow,"Kendriya Vidyalaya, Lucknow - CPCB","10-10-2025 22:00:00",26.906111,80.948222,SO2,6,21,14
India,Uttar_Pradesh,Ghaziabad,"Loni, Ghaziabad - UPPCB","10-10-2025 22:00:00",28.757294,77.278792,PM2.5,87,319,183
India,Uttar_Pradesh,Moradabad,"Employment Office, Moradabad - UPPCB","10-10-2025 22:00:00",28.88528,78.73880,OZONE,13,27,19
India,Uttar_Pradesh,Moradabad,"Jigar Colony, Moradabad - UPPCB","10-10-2025 22:00:00",28.856664,78.772638,PM2.5,40,109,67
India,Uttar_Pradesh,Moradabad,"Kashiram Nagar, Moradabad - UPPCB","10-10-2025 22:00:00",28.849399,78.742362,SO2,18,61,37
India,Uttar_Pradesh,Moradabad,"Kashiram Nagar, Moradabad - UPPCB","10-10-2025 22:00:00",28.849399,78.742362,OZONE,22,32,28
India,Uttar_Pradesh,Moradabad,"Transport Nagar, Moradabad - UPPCB","10-10-2025 22:00:00",28.802625,78.753728,PM10,88,141,113
India,Uttar_Pradesh,Moradabad,"Transport Nagar, Moradabad - UPPCB","10-10-2025 22:00:00",28.802625,78.753728,NO2,27,30,29
India,Uttar_Pradesh,Moradabad,"Transport Nagar, Moradabad - UPPCB","10-10-2025 22:00:00",28.802625,78.753728,SO2,28,30,30
India,Uttar_Pradesh,Moradabad,"Transport Nagar, Moradabad - UPPCB","10-10-2025 22:00:00",28.802625,78.753728,CO,17,29,23
India,Uttar_Pradesh,Moradabad,"Transport Nagar, Moradabad - UPPCB","10-10-2025 22:00:00",28.802625,78.753728,OZONE,26,93,40
India,Uttar_Pradesh,Muzaffarnagar,"New Mandi, Muzaffarnagar - UPPCB","10-10-2025 22:00:00",29.4723508,77.7194031,NO2,16,39,27
India,Uttar_Pradesh,Muzaffarnagar,"New Mandi, Muzaffarnagar - UPPCB","10-10-2025 22:00:00",29.4723508,77.7194031,NH3,5,7,5
India,Uttar_Pradesh,Noida,"Sector - 62, Noida - IMD","10-10-2025 22:00:00",28.6245479,77.3577104,CO,6,15,9
India,Uttar_Pradesh,Noida,"Sector-1, Noida - UPPCB","10-10-2025 22:00:00",28.5898,77.3101,PM10,169,262,195
India,Uttar_Pradesh,Noida,"Sector-1, Noida - UPPCB","10-10-2025 22:00:00",28.5898,77.3101,NO2,23,125,78
India,Uttar_Pradesh,Noida,"Sector-1, Noida - UPPCB","10-10-2025 22:00:00",28.5898,77.3101,SO2,7,11,9
India,Uttar_Pradesh,Noida,"Sector-1, Noida - UPPCB","10-10-2025 22:00:00",28.5898,77.3101,CO,20,88,52
India,Uttar_Pradesh,Noida,"Sector-1, Noida - UPPCB","10-10-2025 22:00:00",28.5898,77.3101,OZONE,11,229,109
India,Uttar_Pradesh,Moradabad,"Buddhi Vihar, Moradabad - UPPCB","10-10-2025 22:00:00",28.83526,78.74460,NH3,5,5,5
India,Uttar_Pradesh,Moradabad,"Buddhi Vihar, Moradabad - UPPCB","10-10-2025 22:00:00",28.83526,78.74460,CO,34,50,39
India,Uttar_Pradesh,Moradabad,"Eco Herbal Park, Moradabad - UPPCB","10-10-2025 22:00:00",28.840739,78.697531,SO2,6,24,12
India,Uttar_Pradesh,Noida,"Sector - 125, Noida - UPPCB","10-10-2025 22:00:00",28.5447608,77.3231257,OZONE,15,196,119
India,Uttar_Pradesh,Moradabad,"Buddhi Vihar, Moradabad - UPPCB","10-10-2025 22:00:00",28.83526,78.74460,PM2.5,30,85,53
India,Uttar_Pradesh,Moradabad,"Employment Office, Moradabad - UPPCB","10-10-2025 22:00:00",28.88528,78.73880,NH3,4,4,4
India,Uttar_Pradesh,Noida,"Sector-116, Noida - UPPCB","10-10-2025 22:00:00",28.569230,77.393848,PM10,143,277,181
India,Uttar_Pradesh,Prayagraj,"Jhunsi, Prayagraj - UPPCB","10-10-2025 22:00:00",25.425602,81.917152,PM2.5,10,87,46
India,West_Bengal,Durgapur,"PCBL Residential Complex, Durgapur - WBPCB","10-10-2025 22:00:00",23.5087640,87.3544400,PM10,42,118,74
India,West_Bengal,Durgapur,"PCBL Residential Complex, Durgapur - WBPCB","10-10-2025 22:00:00",23.5087640,87.3544400,NO2,7,23,12
India,West_Bengal,Durgapur,"Womens College_City Center, Durgapur - WBPCB (Formerly known as Sidhu Kanhu Indoor Stadium)","10-10-2025 22:00:00",23.549395,87.300496,CO,16,102,25
India,West_Bengal,Haldia,"Priyambada Housing Estate, Haldia - WBPCB","10-10-2025 22:00:00",22.06047,88.109737,NO2,8,30,13
India,West_Bengal,Haldia,"Priyambada Housing Estate, Haldia - WBPCB","10-10-2025 22:00:00",22.06047,88.109737,SO2,12,16,13
India,West_Bengal,Howrah,"Belur Math, Howrah - WBPCB","10-10-2025 22:00:00",22.629801,88.352017,SO2,7,9,8
India,Uttar_Pradesh,Varanasi,"Ardhali Bazar, Varanasi - UPPCB","10-10-2025 22:00:00",25.3505986,82.9083074,SO2,18,18,18
India,Uttar_Pradesh,Varanasi,"Bhelupur, Varanasi - UPPCB","10-10-2025 22:00:00",25.301778,82.996789,PM2.5,69,127,87
India,Uttar_Pradesh,Varanasi,"IESD Banaras Hindu University, Varanasi - UPPCB","10-10-2025 22:00:00",25.262326,82.995408,PM10,90,135,112
India,Uttar_Pradesh,Varanasi,"IESD Banaras Hindu University, Varanasi - UPPCB","10-10-2025 22:00:00",25.262326,82.995408,NH3,1,2,1
India,Uttar_Pradesh,Varanasi,"IESD Banaras Hindu University, Varanasi - UPPCB","10-10-2025 22:00:00",25.262326,82.995408,SO2,23,25,24
India,Uttar_Pradesh,Varanasi,"IESD Banaras Hindu University, Varanasi - UPPCB","10-10-2025 22:00:00",25.262326,82.995408,CO,6,20,11
India,Uttar_Pradesh,Varanasi,"Maldahiya, Varanasi - UPPCB","10-10-2025 22:00:00",25.32393,82.99687,SO2,29,32,30
India,Uttar_Pradesh,Vrindavan,"Omex Eternity, Vrindavan - UPPCB","10-10-2025 22:00:00",27.5714090,77.6557570,CO,17,51,29
India,Uttarakhand,Dehradun,"Doon University, Dehradun - UKPCB","10-10-2025 22:00:00",30.269444,78.044167,PM2.5,9,69,31
India,Uttarakhand,Dehradun,"Doon University, Dehradun - UKPCB","10-10-2025 22:00:00",30.269444,78.044167,CO,10,24,17
India,Uttarakhand,Dehradun,"Doon University, Dehradun - UKPCB","10-10-2025 22:00:00",30.269444,78.044167,OZONE,14,31,26
India,Uttarakhand,Kashipur,"Govt. Girls Inter College, Kashipur - UKPCB","10-10-2025 22:00:00",29.2124114,78.9611753,OZONE,1,10,1
India,West_Bengal,Asansol,"Asansol Court Area, Asansol - WBPCB","10-10-2025 22:00:00",23.685297,86.945968,NH3,2,9,5
India,West_Bengal,Asansol,"Asansol Court Area, Asansol - WBPCB","10-10-2025 22:00:00",23.685297,86.945968,CO,7,54,37
India,West_Bengal,Asansol,"Evelyn Lodge, Asansol - WBPCB","10-10-2025 22:00:00",23.6979360,86.9443950,CO,8,34,11
India,Uttar_Pradesh,Prayagraj,"Motilal Nehru NIT, Prayagraj - UPPCB","10-10-2025 22:00:00",25.494,81.863,PM10,64,220,104
India,Uttar_Pradesh,Prayagraj,"Motilal Nehru NIT, Prayagraj - UPPCB","10-10-2025 22:00:00",25.494,81.863,SO2,37,52,39
India,Uttar_Pradesh,Prayagraj,"Motilal Nehru NIT, Prayagraj - UPPCB","10-10-2025 22:00:00",25.494,81.863,CO,8,20,13
India,West_Bengal,Asansol,"Trivenidevi Bhalotia College, Asansol - WBPCB","10-10-2025 22:00:00",23.616515,87.119133,PM10,59,131,91
India,West_Bengal,Asansol,"Trivenidevi Bhalotia College, Asansol - WBPCB","10-10-2025 22:00:00",23.616515,87.119133,NO2,11,52,22
India,West_Bengal,Durgapur,"Mahishkapur Road_B-Zone, Durgapur - WBPCB","10-10-2025 22:00:00",23.567923,87.306843,SO2,9,11,10
India,Uttarakhand,Rishikesh,"Shivaji Nagar, Rishikesh - UKPCB","10-10-2025 22:00:00",30.075911,78.2859547,CO,NA,NA,NA
India,Uttar_Pradesh,Prayagraj,"Jhunsi, Prayagraj - UPPCB","10-10-2025 22:00:00",25.425602,81.917152,CO,19,28,22
India,West_Bengal,Howrah,"Botanical Garden, Howrah - WBPCB","10-10-2025 22:00:00",22.554954,88.292568,PM10,41,86,64
India,West_Bengal,Howrah,"Dasnagar, Howrah - WBPCB","10-10-2025 22:00:00",22.6025571,88.3105664,PM2.5,29,132,78
India,West_Bengal,Howrah,"Ghusuri, Howrah - WBPCB","10-10-2025 22:00:00",22.611968,88.347422,PM2.5,45,90,72
India,West_Bengal,Howrah,"Ghusuri, Howrah - WBPCB","10-10-2025 22:00:00",22.611968,88.347422,CO,40,52,42
India,West_Bengal,Howrah,"Ghusuri, Howrah - WBPCB","10-10-2025 22:00:00",22.611968,88.347422,OZONE,4,72,18
India,West_Bengal,Howrah,"Padmapukur, Howrah - WBPCB","10-10-2025 22:00:00",22.5687319,88.2797276,NH3,3,11,7
India,West_Bengal,Kolkata,"Ballygunge, Kolkata - WBPCB","10-10-2025 22:00:00",22.5367507,88.3638022,PM10,45,99,75
India,West_Bengal,Kolkata,"Bidhannagar, Kolkata - WBPCB","10-10-2025 22:00:00",22.58157048,88.41002457,NH3,4,8,5
India,West_Bengal,Kolkata,"Fort William, Kolkata - WBPCB","10-10-2025 22:00:00",22.556640,88.342674,NO2,8,24,18
India,West_Bengal,Kolkata,"Fort William, Kolkata - WBPCB","10-10-2025 22:00:00",22.556640,88.342674,SO2,8,9,9
India,West_Bengal,Kolkata,"Fort William, Kolkata - WBPCB","10-10-2025 22:00:00",22.556640,88.342674,OZONE,30,51,41
India,West_Bengal,Kolkata,"Jadavpur, Kolkata - WBPCB","10-10-2025 22:00:00",22.49929,88.36917,NO2,19,38,28
India,West_Bengal,Kolkata,"Jadavpur, Kolkata - WBPCB","10-10-2025 22:00:00",22.49929,88.36917,NH3,6,12,9
India,West_Bengal,Kolkata,"Jadavpur, Kolkata - WBPCB","10-10-2025 22:00:00",22.49929,88.36917,OZONE,12,60,31
India,West_Bengal,Kolkata,"Rabindra Bharati University, Kolkata - WBPCB","10-10-2025 22:00:00",22.627847,88.380669,PM10,90,196,150
India,West_Bengal,Kolkata,"Rabindra Bharati University, Kolkata - WBPCB","10-10-2025 22:00:00",22.627847,88.380669,SO2,5,9,7
India,West_Bengal,Kolkata,"Rabindra Bharati University, Kolkata - WBPCB","10-10-2025 22:00:00",22.627847,88.380669,CO,23,40,26
India,Arunachal_Pradesh,Naharlagun,"Naharlagun, Naharlagun - APSPCB","10-10-2025 22:00:00",27.103358,93.679645,OZONE,4,5,5
India,Assam,Byrnihat,"Central Academy for SFS, Byrnihat - PCBA","10-10-2025 22:00:00",26.071318,91.87488,PM2.5,NA,NA,NA
India,Assam,Byrnihat,"Central Academy for SFS, Byrnihat - PCBA","10-10-2025 22:00:00",26.071318,91.87488,NH3,NA,NA,NA
India,Assam,Byrnihat,"Central Academy for SFS, Byrnihat - PCBA","10-10-2025 22:00:00",26.071318,91.87488,OZONE,37,39,38
India,Assam,Guwahati,"IITG, Guwahati - PCBA","10-10-2025 22:00:00",26.2028636,91.70046436,PM2.5,NA,NA,NA
India,Assam,Guwahati,"IITG, Guwahati - PCBA","10-10-2025 22:00:00",26.2028636,91.70046436,PM10,29,121,81
India,Assam,Nagaon,"Christianpatty, Nagaon - PCBA","10-10-2025 22:00:00",26.349082,92.68449,CO,28,50,36
India,Assam,Nagaon,"Christianpatty, Nagaon - PCBA","10-10-2025 22:00:00",26.349082,92.68449,OZONE,9,9,9
India,Assam,Nalbari,"Bata Chowk, Nalbari - PCBA","10-10-2025 22:00:00",26.446912,91.439057,CO,6,28,25
India,Assam,Silchar,"Tarapur, Silchar - PCBA","10-10-2025 22:00:00",24.82827,92.79525,SO2,4,4,4
India,Andhra_Pradesh,Kadapa,"Yerramukkapalli, Kadapa - APPCB","10-10-2025 22:00:00",14.465052,78.824187,OZONE,36,46,42
India,Andhra_Pradesh,Rajamahendravaram,"Anand Kala Kshetram, Rajamahendravaram - APPCB","10-10-2025 22:00:00",16.9872867,81.7363176,PM2.5,20,59,41
India,Andhra_Pradesh,Tirumala,"Toll Gate, Tirumala - APPCB","10-10-2025 22:00:00",13.67,79.35,PM2.5,27,140,78
India,Andhra_Pradesh,Anantapur,"Gulzarpet, Anantapur - APPCB","10-10-2025 22:00:00",14.675886,77.593027,PM10,51,75,59
India,Andhra_Pradesh,Chittoor,"Gangineni Cheruvu, Chittoor - APPCB","10-10-2025 22:00:00",13.204880,79.097889,CO,28,57,47
India,Andhra_Pradesh,Chittoor,"Gangineni Cheruvu, Chittoor - APPCB","10-10-2025 22:00:00",13.204880,79.097889,OZONE,42,114,114
India,Bihar,Araria,"Kharahiya Basti, Araria - BSPCB","10-10-2025 22:00:00",26.146529,87.454184,SO2,11,19,16
India,Bihar,Araria,"Kharahiya Basti, Araria - BSPCB","10-10-2025 22:00:00",26.146529,87.454184,OZONE,9,11,10
India,Bihar,Arrah,"New DM Office, Arrah - BSPCB","10-10-2025 22:00:00",25.5626095,84.663264,NH3,1,1,1
India,Bihar,Arrah,"New DM Office, Arrah - BSPCB","10-10-2025 22:00:00",25.5626095,84.663264,OZONE,4,16,9
India,Bihar,Aurangabad,"Gurdeo Nagar, Aurangabad - BSPCB","10-10-2025 22:00:00",24.75746,84.366208,PM2.5,5,20,12
India,Andhra_Pradesh,Vijayawada,"HB Colony, Vijayawada - APPCB","10-10-2025 22:00:00",16.536107,80.594233,CO,14,39,29
India,Andhra_Pradesh,Vijayawada,"Rajiv Nagar, Vijayawada - APPCB","10-10-2025 22:00:00",16.554731,80.649110,PM10,35,95,44
India,Assam,Guwahati,"IITG, Guwahati - PCBA","10-10-2025 22:00:00",26.2028636,91.70046436,CO,5,17,12
India,Assam,Guwahati,"Pan Bazaar, Guwahati - PCBA","10-10-2025 22:00:00",26.187500,91.744194,CO,16,52,26
India,Andhra_Pradesh,Visakhapatnam,"GVM Corporation, Visakhapatnam - APPCB","10-10-2025 22:00:00",17.72,83.3,NH3,2,4,3
India,Andhra_Pradesh,Visakhapatnam,"GVM Corporation, Visakhapatnam - APPCB","10-10-2025 22:00:00",17.72,83.3,SO2,6,14,9
India,Andhra_Pradesh,Amaravati,"Secretariat, Amaravati - APPCB","10-10-2025 22:00:00",16.5150833,80.5181667,CO,6,41,22
India,Bihar,Bhagalpur,"DM Office_Kachari Chowk, Bhagalpur - BSPCB","10-10-2025 22:00:00",25.251013,86.989001,PM10,29,64,45
India,Bihar,Bhagalpur,"DM Office_Kachari Chowk, Bhagalpur - BSPCB","10-10-2025 22:00:00",25.251013,86.989001,SO2,35,52,41
India,Bihar,Bhagalpur,"DM Office_Kachari Chowk, Bhagalpur - BSPCB","10-10-2025 22:00:00",25.251013,86.989001,CO,12,16,13
India,Bihar,Bhagalpur,"DM Office_Kachari Chowk, Bhagalpur - BSPCB","10-10-2025 22:00:00",25.251013,86.989001,OZONE,6,26,21
India,Bihar,Bhagalpur,"Mayaganj, Bhagalpur - BSPCB","10-10-2025 22:00:00",25.265194,87.012947,NH3,6,10,7
India,Bihar,Bhagalpur,"Mayaganj, Bhagalpur - BSPCB","10-10-2025 22:00:00",25.265194,87.012947,OZONE,28,46,37
India,Bihar,"Bihar Sharif","D M Colony, Bihar Sharif - BSPCB","10-10-2025 22:00:00",25.204762,85.514960,NH3,2,3,2
India,Bihar,"Bihar Sharif","D M Colony, Bihar Sharif - BSPCB","10-10-2025 22:00:00",25.204762,85.514960,SO2,10,10,10
India,Bihar,"Bihar Sharif","D M Colony, Bihar Sharif - BSPCB","10-10-2025 22:00:00",25.204762,85.514960,OZONE,14,49,28
India,Bihar,Buxar,"Charitra Van, Buxar - BSPCB","10-10-2025 22:00:00",25.567520,83.966379,SO2,1,5,3
India,Bihar,Buxar,"Charitra Van, Buxar - BSPCB","10-10-2025 22:00:00",25.567520,83.966379,CO,20,28,23
India,Bihar,Buxar,"Charitra Van, Buxar - BSPCB","10-10-2025 22:00:00",25.567520,83.966379,OZONE,1,129,26
India,Bihar,Manguraha,"Forest Rest House, Manguraha - BSPCB","10-10-2025 22:00:00",27.308328,84.531742,OZONE,8,24,13
India,Bihar,Motihari,"Gandak Colony, Motihari - BSPCB","10-10-2025 22:00:00",26.63086,84.90051,NH3,3,3,3
India,Bihar,Motihari,"Gandak Colony, Motihari - BSPCB","10-10-2025 22:00:00",26.63086,84.90051,OZONE,2,3,2
India,Bihar,Munger,"Town Hall, Munger - BSPCB","10-10-2025 22:00:00",25.376776,86.471523,NO2,4,5,5
India,Bihar,Muzaffarpur,"Buddha Colony, Muzaffarpur - BSPCB","10-10-2025 22:00:00",26.11442,85.39813,PM2.5,NA,NA,NA
India,Bihar,Muzaffarpur,"Buddha Colony, Muzaffarpur - BSPCB","10-10-2025 22:00:00",26.11442,85.39813,NO2,NA,NA,NA
India,Bihar,Hajipur,"Industrial Area, Hajipur - BSPCB","10-10-2025 22:00:00",25.697189,85.245900,NO2,7,15,10
India,Bihar,Hajipur,"Industrial Area, Hajipur - BSPCB","10-10-2025 22:00:00",25.697189,85.245900,NH3,5,11,8
India,Bihar,Katihar,"Mirchaibari, Katihar - BSPCB","10-10-2025 22:00:00",25.560083,87.553265,PM2.5,30,40,35
India,Bihar,Katihar,"Mirchaibari, Katihar - BSPCB","10-10-2025 22:00:00",25.560083,87.553265,SO2,12,25,16
India,Bihar,Kishanganj,"SDM Office_Khagra, Kishanganj - BSPCB","10-10-2025 22:00:00",26.0881305,87.93840336,NO2,7,8,7
India,Bihar,Gaya,"Kareemganj, Gaya - BSPCB","10-10-2025 22:00:00",24.792403,84.992416,PM2.5,13,147,44
India,Bihar,Gaya,"Kareemganj, Gaya - BSPCB","10-10-2025 22:00:00",24.792403,84.992416,PM10,95,203,144
India,Bihar,Gaya,"Kareemganj, Gaya - BSPCB","10-10-2025 22:00:00",24.792403,84.992416,NH3,5,6,5
India,Bihar,Muzaffarpur,"MIT-Daudpur Kothi, Muzaffarpur - BSPCB","10-10-2025 22:00:00",26.1403345,85.3650192,PM10,41,48,47
India,Bihar,Muzaffarpur,"MIT-Daudpur Kothi, Muzaffarpur - BSPCB","10-10-2025 22:00:00",26.1403345,85.3650192,OZONE,52,71,56
India,Bihar,Begusarai,"Lohiyanagar, Begusarai - BSPCB","10-10-2025 22:00:00",25.42742023,86.13886079,PM2.5,8,38,20
India,Bihar,Bettiah,"Kamalnath Nagar, Bettiah - BSPCB","10-10-2025 22:00:00",26.80365,84.51954,OZONE,24,31,28
India,Bihar,Katihar,"Mirchaibari, Katihar - BSPCB","10-10-2025 22:00:00",25.560083,87.553265,PM10,29,32,30
India,Bihar,Patna,"Muradpur, Patna - BSPCB","10-10-2025 22:00:00",25.619651,85.147382,OZONE,4,40,24
India,Bihar,Patna,"Rajbansi Nagar, Patna - BSPCB","10-10-2025 22:00:00",25.599486,85.113666,PM10,50,94,70
India,Bihar,Patna,"Rajbansi Nagar, Patna - BSPCB","10-10-2025 22:00:00",25.599486,85.113666,CO,15,54,44
India,Bihar,Purnia,"Mariam Nagar, Purnia - BSPCB","10-10-2025 22:00:00",25.366336,87.117468,PM10,39,88,63
India,Bihar,Purnia,"Mariam Nagar, Purnia - BSPCB","10-10-2025 22:00:00",25.366336,87.117468,NO2,4,8,6
India,Bihar,Purnia,"Mariam Nagar, Purnia - BSPCB","10-10-2025 22:00:00",25.366336,87.117468,SO2,NA,NA,NA
India,Bihar,Purnia,"Mariam Nagar, Purnia - BSPCB","10-10-2025 22:00:00",25.366336,87.117468,OZONE,15,37,25
India,Chhattisgarh,Bhilai,"32Bungalows, Bhilai - CECB","10-10-2025 22:00:00",21.194815,81.314770,CO,10,56,30
India,Chhattisgarh,Bhilai,"Civic Center, Bhilai - Bhilai Steel Plant","10-10-2025 22:00:00",21.185571,81.343175,PM2.5,15,139,56
India,Chhattisgarh,Bhilai,"Civic Center, Bhilai - Bhilai Steel Plant","10-10-2025 22:00:00",21.185571,81.343175,OZONE,7,13,8
India,Chhattisgarh,Bhilai,"Hathkhoj, Bhilai - CECB","10-10-2025 22:00:00",21.224231,81.408350,PM2.5,26,74,48
India,Bihar,Rajgir,"Dangi Tola, Rajgir - BSPCB","10-10-2025 22:00:00",25.03280,85.41948,NH3,6,8,7
India,Bihar,Rajgir,"Dangi Tola, Rajgir - BSPCB","10-10-2025 22:00:00",25.03280,85.41948,SO2,19,24,21
India,Bihar,Samastipur,"DM Office_Kasipur, Samastipur - BSPCB","10-10-2025 22:00:00",25.859655,85.77944,PM10,NA,NA,NA
India,Bihar,Patna,"Govt. High School Shikarpur, Patna - BSPCB","10-10-2025 22:00:00",25.592539,85.227158,NH3,4,5,4
India,Bihar,Patna,"Govt. High School Shikarpur, Patna - BSPCB","10-10-2025 22:00:00",25.592539,85.227158,SO2,7,9,8
India,Bihar,Patna,"Govt. High School Shikarpur, Patna - BSPCB","10-10-2025 22:00:00",25.592539,85.227158,OZONE,8,12,10
India,Bihar,Siwan,"Chitragupta Nagar, Siwan - BSPCB","10-10-2025 22:00:00",26.2271665,84.3570427,PM2.5,40,92,58
India,Bihar,Siwan,"Chitragupta Nagar, Siwan - BSPCB","10-10-2025 22:00:00",26.2271665,84.3570427,NH3,1,1,1
India,Chandigarh,Chandigarh,"Sector 22, Chandigarh - CPCC","10-10-2025 22:00:00",30.735567,76.775714,SO2,4,9,6
India,Chandigarh,Chandigarh,"Sector 22, Chandigarh - CPCC","10-10-2025 22:00:00",30.735567,76.775714,OZONE,5,179,68
India,Chhattisgarh,Chhal,"Nawapara SECL Colony, Chhal - CECB","10-10-2025 22:00:00",22.118125,83.140608,OZONE,41,100,72
India,Chhattisgarh,Bhilai,"32Bungalows, Bhilai - CECB","10-10-2025 22:00:00",21.194815,81.314770,PM10,22,92,51
India,Bihar,Siwan,"Chitragupta Nagar, Siwan - BSPCB","10-10-2025 22:00:00",26.2271665,84.3570427,SO2,4,5,5
India,Chhattisgarh,Raipur,"Krishak Nagar, Raipur - CECB","10-10-2025 22:00:00",21.237755,81.705301,NH3,2,7,3
India,Chhattisgarh,Raipur,"Siltara Phase-II, Raipur - CECB","10-10-2025 22:00:00",21.371751,81.664929,CO,14,32,23
India,Chhattisgarh,Tumidih,"OP Jindal Industrial Park, Tumidih - CECB","10-10-2025 22:00:00",22.06631475,83.33820077,NO2,9,51,16
India,Chhattisgarh,Milupara,"Govt. Higher Secondary School, Milupara - CECB","10-10-2025 22:00:00",22.1910172,83.5197009,OZONE,3,33,17
India,Chhattisgarh,Raipur,"AIIMS, Raipur - CECB","10-10-2025 22:00:00",21.258815,81.578979,NO2,11,23,15
India,Chhattisgarh,Raipur,"Bhatagaon New ISBT, Raipur - CECB","10-10-2025 22:00:00",21.219665,81.630094,CO,24,50,36
India,Chhattisgarh,Kunjemura,"OP Jindal School, Kunjemura - CECB","10-10-2025 22:00:00",22.126650,83.483212,PM2.5,NA,NA,NA
India,Chhattisgarh,Kunjemura,"OP Jindal School, Kunjemura - CECB","10-10-2025 22:00:00",22.126650,83.483212,NO2,NA,NA,NA
India,Chhattisgarh,Milupara,"Govt. Higher Secondary School, Milupara - CECB","10-10-2025 22:00:00",22.1910172,83.5197009,NO2,10,39,20
India,Delhi,Delhi,"Ashok Vihar, Delhi - DPCC","10-10-2025 22:00:00",28.695381,77.181665,CO,31,75,60
India,Delhi,Delhi,"Bawana, Delhi - DPCC","10-10-2025 22:00:00",28.776200,77.051074,PM10,129,233,161
India,Delhi,Delhi,"Bawana, Delhi - DPCC","10-10-2025 22:00:00",28.776200,77.051074,NH3,3,5,4
India,Delhi,Delhi,"Anand Vihar, Delhi - DPCC","10-10-2025 22:00:00",28.647622,77.3158090,PM2.5,67,193,114
India,Delhi,Delhi,"Anand Vihar, Delhi - DPCC","10-10-2025 22:00:00",28.647622,77.3158090,PM10,159,348,207
India,Delhi,Delhi,"Anand Vihar, Delhi - DPCC","10-10-2025 22:00:00",28.647622,77.3158090,NH3,1,2,2
India,Chhattisgarh,Milupara,"Govt. Higher Secondary School, Milupara - CECB","10-10-2025 22:00:00",22.1910172,83.5197009,NH3,NA,NA,NA
India,Chhattisgarh,Korba,"Urja Nagar, Korba - CECB","10-10-2025 22:00:00",22.348441,82.549611,NO2,18,24,20
India,Chhattisgarh,Korba,"Rampur, Korba - CECB","10-10-2025 22:00:00",22.368195,82.746431,SO2,4,10,8
India,Delhi,Delhi,"Alipur, Delhi - DPCC","10-10-2025 22:00:00",28.815329,77.153010,PM10,124,354,164
India,Delhi,Delhi,"Burari Crossing, Delhi - IMD","10-10-2025 22:00:00",28.7256504,77.2011573,PM10,119,255,157
India,Delhi,Delhi,"Burari Crossing, Delhi - IMD","10-10-2025 22:00:00",28.7256504,77.2011573,NO2,17,33,23
India,Delhi,Delhi,"Chandni Chowk, Delhi - IITM","10-10-2025 22:00:00",28.656756,77.227234,NO2,12,55,29
India,Delhi,Delhi,"Chandni Chowk, Delhi - IITM","10-10-2025 22:00:00",28.656756,77.227234,NH3,6,10,8
India,Delhi,Delhi,"DTU, Delhi - CPCB","10-10-2025 22:00:00",28.7500499,77.1112615,NO2,47,78,64
India,Delhi,Delhi,"DTU, Delhi - CPCB","10-10-2025 22:00:00",28.7500499,77.1112615,NH3,5,11,8
India,Delhi,Delhi,"DTU, Delhi - CPCB","10-10-2025 22:00:00",28.7500499,77.1112615,SO2,30,34,33
India,Delhi,Delhi,"DTU, Delhi - CPCB","10-10-2025 22:00:00",28.7500499,77.1112615,CO,22,38,28
India,Delhi,Delhi,"Dr. Karni Singh Shooting Range, Delhi - DPCC","10-10-2025 22:00:00",28.498571,77.264840,PM10,131,248,174
India,Delhi,Delhi,"Dr. Karni Singh Shooting Range, Delhi - DPCC","10-10-2025 22:00:00",28.498571,77.264840,NO2,39,97,63
India,Delhi,Delhi,"Dr. Karni Singh Shooting Range, Delhi - DPCC","10-10-2025 22:00:00",28.498571,77.264840,SO2,NA,NA,NA
India,Delhi,Delhi,"Dwarka-Sector 8, Delhi - DPCC ","10-10-2025 22:00:00",28.5710274,77.0719006,PM2.5,78,250,111
India,Delhi,Delhi,"Okhla Phase-2, Delhi - DPCC","10-10-2025 22:00:00",28.530785,77.271255,NO2,42,136,74
India,Delhi,Delhi,"Okhla Phase-2, Delhi - DPCC","10-10-2025 22:00:00",28.530785,77.271255,NH3,6,8,7
India,Delhi,Delhi,"Okhla Phase-2, Delhi - DPCC","10-10-2025 22:00:00",28.530785,77.271255,CO,22,104,48
India,Delhi,Delhi,"Pusa, Delhi - DPCC","10-10-2025 22:00:00",28.639652,77.146275,NO2,44,168,86
India,Delhi,Delhi,"Pusa, Delhi - DPCC","10-10-2025 22:00:00",28.639652,77.146275,OZONE,5,80,42
India,Delhi,Delhi,"Pusa, Delhi - IMD","10-10-2025 22:00:00",28.636110,77.173332,PM2.5,76,163,106
India,Delhi,Delhi,"Pusa, Delhi - IMD","10-10-2025 22:00:00",28.636110,77.173332,PM10,110,173,138
India,Delhi,Delhi,"Pusa, Delhi - IMD","10-10-2025 22:00:00",28.636110,77.173332,CO,1,120,56
India,Delhi,Delhi,"Narela, Delhi - DPCC","10-10-2025 22:00:00",28.822836,77.101981,NH3,14,15,14
India,Delhi,Delhi,"Narela, Delhi - DPCC","10-10-2025 22:00:00",28.822836,77.101981,CO,26,54,37
India,Delhi,Delhi,"Nehru Nagar, Delhi - DPCC","10-10-2025 22:00:00",28.567890,77.250515,PM2.5,70,320,128
India,Delhi,Delhi,"Nehru Nagar, Delhi - DPCC","10-10-2025 22:00:00",28.567890,77.250515,NO2,10,109,41
India,Delhi,Delhi,"North Campus, DU, Delhi - IMD","10-10-2025 22:00:00",28.6573814,77.1585447,PM2.5,55,166,101
India,Delhi,Delhi,"North Campus, DU, Delhi - IMD","10-10-2025 22:00:00",28.6573814,77.1585447,PM10,111,195,157
India,Delhi,Delhi,"North Campus, DU, Delhi - IMD","10-10-2025 22:00:00",28.6573814,77.1585447,CO,1,114,62
India,Delhi,Delhi,"Mandir Marg, Delhi - DPCC","10-10-2025 22:00:00",28.636429,77.201067,NH3,5,6,5
India,Delhi,Delhi,"Mundka, Delhi - DPCC","10-10-2025 22:00:00",28.684678,77.076574,SO2,NA,NA,NA
India,Delhi,Delhi,"NSIT Dwarka, Delhi - CPCB","10-10-2025 22:00:00",28.60909,77.0325413,NO2,41,85,55
India,Delhi,Delhi,"NSIT Dwarka, Delhi - CPCB","10-10-2025 22:00:00",28.60909,77.0325413,NH3,7,10,8
India,Delhi,Delhi,"Jawaharlal Nehru Stadium, Delhi - DPCC","10-10-2025 22:00:00",28.580280,77.233829,SO2,6,18,11
India,Delhi,Delhi,"Lodhi Road, Delhi - IMD","10-10-2025 22:00:00",28.5918245,77.2273074,PM2.5,78,212,104
India,Delhi,Delhi,"IHBAS, Dilshad Garden, Delhi - CPCB","10-10-2025 22:00:00",28.6811736,77.3025234,SO2,12,21,16
India,Delhi,Delhi,"North Campus, DU, Delhi - IMD","10-10-2025 22:00:00",28.6573814,77.1585447,OZONE,9,287,146
India,Delhi,Delhi,"Dwarka-Sector 8, Delhi - DPCC ","10-10-2025 22:00:00",28.5710274,77.0719006,NH3,3,5,4
India,Delhi,Delhi,"Narela, Delhi - DPCC","10-10-2025 22:00:00",28.822836,77.101981,PM2.5,79,206,119
India,Delhi,Delhi,"Wazirpur, Delhi - DPCC","10-10-2025 22:00:00",28.699793,77.165453,SO2,8,17,14
India,Gujarat,Ahmedabad,"Chandkheda, Ahmedabad - IITM","10-10-2025 22:00:00",23.107969,72.574648,PM2.5,75,160,105
India,Gujarat,Ahmedabad,"Gyaspur, Ahmedabad - IITM","10-10-2025 22:00:00",22.977134,72.553024,PM10,177,454,247
India,Gujarat,Ahmedabad,"Gyaspur, Ahmedabad - IITM","10-10-2025 22:00:00",22.977134,72.553024,NO2,19,51,35
India,Gujarat,Ahmedabad,"Gyaspur, Ahmedabad - IITM","10-10-2025 22:00:00",22.977134,72.553024,NH3,2,15,8
India,Gujarat,Ahmedabad,"Gyaspur, Ahmedabad - IITM","10-10-2025 22:00:00",22.977134,72.553024,CO,12,50,30
India,Delhi,Delhi,"R K Puram, Delhi - DPCC","10-10-2025 22:00:00",28.563262,77.186937,NO2,9,111,42
India,Delhi,Delhi,"Rohini, Delhi - DPCC","10-10-2025 22:00:00",28.732528,77.119920,PM2.5,67,243,125
India,Delhi,Delhi,"Rohini, Delhi - DPCC","10-10-2025 22:00:00",28.732528,77.119920,NO2,6,44,17
India,Delhi,Delhi,"Shadipur, Delhi - CPCB","10-10-2025 22:00:00",28.6514781,77.1473105,PM10,139,228,164
India,Delhi,Delhi,"Shadipur, Delhi - CPCB","10-10-2025 22:00:00",28.6514781,77.1473105,NH3,6,10,7
India,Gujarat,Ahmedabad,"Raikhad, Ahmedabad - IITM","10-10-2025 22:00:00",23.020509,72.579261,PM10,164,236,189
India,Gujarat,Ahmedabad,"Raikhad, Ahmedabad - IITM","10-10-2025 22:00:00",23.020509,72.579261,NO2,26,119,65
India,Gujarat,Ahmedabad,"Raikhad, Ahmedabad - IITM","10-10-2025 22:00:00",23.020509,72.579261,OZONE,1,56,26
India,Gujarat,Ahmedabad,"Rakhial, Ahmedabad - IITM","10-10-2025 22:00:00",23.016834,72.625775,PM10,NA,NA,NA
India,Gujarat,Ahmedabad,"Rakhial, Ahmedabad - IITM","10-10-2025 22:00:00",23.016834,72.625775,NH3,1,5,4
India,Gujarat,Ahmedabad,"Rakhial, Ahmedabad - IITM","10-10-2025 22:00:00",23.016834,72.625775,SO2,11,45,31
India,Delhi,Delhi,"Sonia Vihar, Delhi - DPCC","10-10-2025 22:00:00",28.710508,77.249485,OZONE,5,145,92
India,Delhi,Delhi,"Sri Aurobindo Marg, Delhi - DPCC","10-10-2025 22:00:00",28.531346,77.190156,PM2.5,68,147,103
India,Delhi,Delhi,"Sri Aurobindo Marg, Delhi - DPCC","10-10-2025 22:00:00",28.531346,77.190156,NH3,3,4,4
India,Delhi,Delhi,"Vivek Vihar, Delhi - DPCC","10-10-2025 22:00:00",28.672342,77.315260,NO2,NA,NA,NA
India,Delhi,Delhi,"Vivek Vihar, Delhi - DPCC","10-10-2025 22:00:00",28.672342,77.315260,SO2,NA,NA,NA
India,Delhi,Delhi,"Sirifort, Delhi - CPCB","10-10-2025 22:00:00",28.5504249,77.2159377,PM10,135,366,187
India,Delhi,Delhi,"Sirifort, Delhi - CPCB","10-10-2025 22:00:00",28.5504249,77.2159377,NH3,5,12,8
India,Delhi,Delhi,"Sirifort, Delhi - CPCB","10-10-2025 22:00:00",28.5504249,77.2159377,SO2,24,32,28
India,Gujarat,Ahmedabad,"SAC ISRO Bopal, Ahmedabad - IITM","10-10-2025 22:00:00",23.041137,72.456691,PM10,112,290,191
India,Gujarat,Ahmedabad,"SAC ISRO Bopal, Ahmedabad - IITM","10-10-2025 22:00:00",23.041137,72.456691,SO2,2,9,3
India,Gujarat,Ahmedabad,"SAC ISRO Satellite, Ahmedabad - IITM","10-10-2025 22:00:00",23.023389,72.515201,PM2.5,99,256,191
India,Gujarat,Ahmedabad,"SAC ISRO Satellite, Ahmedabad - IITM","10-10-2025 22:00:00",23.023389,72.515201,NO2,10,128,73
India,Gujarat,Ahmedabad,"SVPI Airport Hansol, Ahmedabad - IITM","10-10-2025 22:00:00",23.076793,72.627874,SO2,1,7,4
India,Gujarat,Ahmedabad,"Maninagar, Ahmedabad - GPCB","10-10-2025 22:00:00",23.002657,72.591912,OZONE,27,73,52
India,Haryana,Karnal,"Sector-12, Karnal - HSPCB","10-10-2025 22:00:00",29.695300,77.002700,OZONE,26,26,26
India,Haryana,Kurukshetra,"Sector-7, Kurukshetra - HSPCB","10-10-2025 22:00:00",29.966942,76.875879,PM2.5,50,108,71
India,Haryana,Mandikhera,"General Hospital, Mandikhera - HSPCB","10-10-2025 22:00:00",27.9002,76.9938,CO,51,66,62
India,Haryana,Manesar,"Sector-2 IMT, Manesar - HSPCB","10-10-2025 22:00:00",28.360699,76.936090,CO,36,94,57
India,Haryana,Palwal,"Shyam Nagar, Palwal - HSPCB","10-10-2025 22:00:00",28.1485564,77.3320667,OZONE,23,25,24
India,Haryana,Panchgaon,"Amity University, Panchgaon - IITM","10-10-2025 22:00:00",28.3153,76.9143,NO2,2,18,9
India,Gujarat,Surat,"Science Center, Surat - SMC","10-10-2025 22:00:00",21.170046,72.795405,SO2,19,24,20
India,Gujarat,Surat,"Science Center, Surat - SMC","10-10-2025 22:00:00",21.170046,72.795405,CO,34,38,35
India,Gujarat,Vapi,"Phase-1 GIDC, Vapi - GPCB","10-10-2025 22:00:00",20.362421,72.918013,PM2.5,110,324,246
India,Gujarat,Vatva,"Phase-4 GIDC, Vatva - GPCB","10-10-2025 22:00:00",22.969611,72.643500,NO2,12,37,26
India,Haryana,"Charkhi Dadri","Mini Secretariat, Charkhi Dadri - HSPCB","10-10-2025 22:00:00",28.593883,76.270653,SO2,9,12,10
India,Haryana,"Charkhi Dadri","Mini Secretariat, Charkhi Dadri - HSPCB","10-10-2025 22:00:00",28.593883,76.270653,OZONE,12,18,15
India,Haryana,Dharuhera,"Municipal Corporation Office, Dharuhera -  HSPCB","10-10-2025 22:00:00",28.206800,76.799700,PM2.5,30,359,81
India,Haryana,Dharuhera,"Municipal Corporation Office, Dharuhera -  HSPCB","10-10-2025 22:00:00",28.206800,76.799700,SO2,NA,NA,NA
India,Haryana,Faridabad,"Sector 30, Faridabad - HSPCB","10-10-2025 22:00:00",28.4417,77.3217,PM10,96,102,99
India,Haryana,Faridabad,"Sector 30, Faridabad - HSPCB","10-10-2025 22:00:00",28.4417,77.3217,NH3,11,12,11
India,Haryana,Gurugram,"NISE Gwal Pahari, Gurugram - IMD","10-10-2025 22:00:00",28.422681,77.148944,PM10,83,216,153
India,Haryana,Gurugram,"NISE Gwal Pahari, Gurugram - IMD","10-10-2025 22:00:00",28.422681,77.148944,NO2,13,27,19
India,Gujarat,Gandhinagar,"GIFT City, Gandhinagar - IITM","10-10-2025 22:00:00",23.163798,72.677768,OZONE,2,50,25
India,Gujarat,Gandhinagar,"IIPHG Lekawada, Gandhinagar - IITM","10-10-2025 22:00:00",23.243639,72.68994,PM2.5,119,162,138
India,Haryana,Faridabad,"New Industrial Town, Faridabad - HSPCB","10-10-2025 22:00:00",28.39072,77.30059,PM10,110,119,114
India,Haryana,Panchkula,"Sector-6, Panchkula - HSPCB ","10-10-2025 22:00:00",30.7057778,76.8531805555555,PM2.5,NA,NA,NA
India,Haryana,Panchgaon,"Amity University, Panchgaon - IITM","10-10-2025 22:00:00",28.3153,76.9143,SO2,3,8,5
India,Haryana,Kaithal,"Rishi Nagar, Kaithal - HSPCB","10-10-2025 22:00:00",29.8006,76.4155,NH3,6,6,6
India,Karnataka,Bengaluru,"Bapuji Nagar, Bengaluru - KSPCB","10-10-2025 22:00:00",12.951913,77.539784,CO,20,107,70
India,Karnataka,Bengaluru,"City Railway Station, Bengaluru - KSPCB","10-10-2025 22:00:00",12.9756843,77.5660749,PM10,81,98,85
India,Karnataka,Bengaluru,"City Railway Station, Bengaluru - KSPCB","10-10-2025 22:00:00",12.9756843,77.5660749,NO2,44,50,47
India,Karnataka,Bengaluru,"Hebbal, Bengaluru - KSPCB","10-10-2025 22:00:00",13.029152,77.585901,NO2,13,25,23
India,Haryana,Panchkula,"Sector-6, Panchkula - HSPCB ","10-10-2025 22:00:00",30.7057778,76.8531805555555,NO2,NA,NA,NA
India,Haryana,Panipat,"Sector-18, Panipat - HSPCB","10-10-2025 22:00:00",29.432304,76.972765,PM10,NA,NA,NA
India,Haryana,Rohtak,"MD University, Rohtak - HSPCB","10-10-2025 22:00:00",28.52123,76.37138,PM2.5,126,300,210
India,Karnataka,Bagalkot,"Vidayagiri, Bagalkot - KSPCB","10-10-2025 22:00:00",16.172806,75.659694,PM2.5,33,34,34
India,Karnataka,Bagalkot,"Vidayagiri, Bagalkot - KSPCB","10-10-2025 22:00:00",16.172806,75.659694,SO2,7,7,7
India,Karnataka,Bengaluru,"Bapuji Nagar, Bengaluru - KSPCB","10-10-2025 22:00:00",12.951913,77.539784,PM2.5,5,159,56
India,Karnataka,Bengaluru,"Bapuji Nagar, Bengaluru - KSPCB","10-10-2025 22:00:00",12.951913,77.539784,PM10,8,163,75
India,Jammu_and_Kashmir,Srinagar,"Rajbagh, Srinagar - JKSPCB","10-10-2025 22:00:00",34.066206,74.819820,PM2.5,33,65,45
India,Jammu_and_Kashmir,Srinagar,"Rajbagh, Srinagar - JKSPCB","10-10-2025 22:00:00",34.066206,74.819820,CO,12,22,18
India,Jharkhand,Dhanbad,"Sardar Patel Nagar, Dhanbad - JSPCB","10-10-2025 22:00:00",23.80569,86.44268,PM10,18,85,52
India,Karnataka,Bengaluru,"Jayanagar 5th Block, Bengaluru - KSPCB","10-10-2025 22:00:00",12.920984,77.584908,OZONE,12,37,19
India,Karnataka,Bengaluru,"Kasturi Nagar, Bengaluru - KSPCB","10-10-2025 22:00:00",13.003872,77.664217,NO2,27,30,27
India,Karnataka,Bengaluru,"Kasturi Nagar, Bengaluru - KSPCB","10-10-2025 22:00:00",13.003872,77.664217,OZONE,24,24,24
India,Karnataka,Bengaluru,"Peenya, Bengaluru - CPCB","10-10-2025 22:00:00",13.0270199,77.494094,CO,18,31,22
India,Karnataka,Bengaluru,"Hebbal, Bengaluru - KSPCB","10-10-2025 22:00:00",13.029152,77.585901,SO2,1,6,3
India,Haryana,Sirsa,"F-Block, Sirsa - HSPCB","10-10-2025 22:00:00",29.536400,75.015800,PM10,61,101,83
India,Karnataka,Bengaluru,"Sanegurava Halli, Bengaluru - KSPCB","10-10-2025 22:00:00",12.990328,77.5431385,PM10,39,41,40
India,Karnataka,Bengaluru,"Silk Board, Bengaluru - KSPCB","10-10-2025 22:00:00",12.917348,77.622813,NO2,NA,NA,NA
India,Karnataka,Bengaluru,"Silk Board, Bengaluru - KSPCB","10-10-2025 22:00:00",12.917348,77.622813,NH3,NA,NA,NA
India,Karnataka,Bengaluru,"Silk Board, Bengaluru - KSPCB","10-10-2025 22:00:00",12.917348,77.622813,CO,10,26,20
India,Karnataka,Bengaluru,"Silk Board, Bengaluru - KSPCB","10-10-2025 22:00:00",12.917348,77.622813,OZONE,10,11,11
India,Karnataka,Chamarajanagar,"Urban, Chamarajanagar - KSPCB","10-10-2025 22:00:00",11.55358,76.55521,NO2,14,35,20
India,Karnataka,Koppal,"Diwator Nagar, Koppal - KSPCB","10-10-2025 22:00:00",15.347630,76.181767,NH3,NA,NA,NA
India,Karnataka,Madikeri,"Stuart Hill, Madikeri - KSPCB","10-10-2025 22:00:00",12.415911,75.735050,CO,5,11,9
India,Karnataka,Madikeri,"Stuart Hill, Madikeri - KSPCB","10-10-2025 22:00:00",12.415911,75.735050,OZONE,3,8,4
India,Karnataka,Mangalore,"Kadri, Mangalore - KSPCB","10-10-2025 22:00:00",12.889250,74.853000,NO2,NA,NA,NA
India,Karnataka,Chikkaballapur,"Chikkaballapur Rural, Chikkaballapur - KSPCB","10-10-2025 22:00:00",13.428828,77.731418,PM10,NA,NA,NA
